geometry,ident,type,name,latitude_d,longitude,elevation,continent,iso_countr,iso_region,municipali,scheduled,gps_code,iata_code,status,objectid
POINT (-76.5008 0.505228),SKAS,medium_airport,Tres De Mayo Airport,0.505228,-76.5008,815,South America,CO,CO-PUT,Puerto Asís,yes,SKAS,PUU,,3001
POINT (-73.1848 7.1265),SKBG,medium_airport,Palonegro Airport,7.1265,-73.1848,3897,South America,CO,CO-SAN,Bucaramanga,yes,SKBG,BGA,,3002
POINT (-74.1469 4.70159),SKBO,large_airport,El Dorado International Airport,4.70159,-74.1469,8361,South America,CO,CO-CUN,Bogota,yes,SKBO,BOG,Restrictions,3003
POINT (-74.7808 10.8896),SKBQ,medium_airport,Ernesto Cortissoz International Airport,10.8896,-74.7808,98,South America,CO,CO-ATL,Barranquilla,yes,SKBQ,BAQ,Restrictions,3004
POINT (-77.3947 6.20292),SKBS,medium_airport,José Celestino Mutis Airport,6.20292,-77.3947,80,South America,CO,CO-CHO,Bahía Solano,yes,SKBS,BSC,,3005
POINT (-76.9898 3.81963),SKBU,medium_airport,Gerardo Tobar López Airport,3.81963,-76.9898,48,South America,CO,CO-VAC,Buenaventura,yes,SKBU,BUN,,3006
POINT (-72.5115 7.92757),SKCC,medium_airport,Camilo Daza International Airport,7.92757,-72.5115,1096,South America,CO,CO-NSA,Cúcuta,yes,SKCC,CUC,Restrictions,3007
POINT (-75.513 10.4424),SKCG,medium_airport,Rafael Nuñez International Airport,10.4424,-75.513,4,South America,CO,CO-BOL,Cartagena,yes,SKCG,CTG,Restrictions,3008
POINT (-76.3816 3.54322),SKCL,medium_airport,Alfonso Bonilla Aragon International Airport,3.54322,-76.3816,3162,South America,CO,CO-VAC,Cali,yes,SKCL,CLO,Restrictions,3009
POINT (-78.7492 1.81442),SKCO,medium_airport,La Florida Airport,1.81442,-78.7492,8,South America,CO,CO-NAR,Tumaco,yes,SKCO,TCO,,3010
POINT (-75.2856 9.33274),SKCZ,medium_airport,Las Brujas Airport,9.33274,-75.2856,528,South America,CO,CO-SUC,Corozal,yes,SKCZ,CZU,,3011
POINT (-73.8068 7.02433),SKEJ,medium_airport,Yariguíes Airport,7.02433,-73.8068,412,South America,CO,CO-SAN,Barrancabermeja,yes,SKEJ,EJA,,3012
POINT (-75.5644 1.58919),SKFL,medium_airport,Gustavo Artunduaga Paredes Airport,1.58919,-75.5644,803,South America,CO,CO-CAQ,Florencia,yes,SKFL,FLA,,3013
POINT (-75.9557 4.75818),SKGO,medium_airport,Santa Ana Airport,4.75818,-75.9557,2979,South America,CO,CO-VAC,Cartago,yes,SKGO,CRC,,3014
POINT (-77.8986 2.57013),SKGP,medium_airport,Juan Casiano Airport,2.57013,-77.8986,164,South America,CO,CO-CAU,Guapi,yes,SKGP,GPI,,3015
POINT (-76.98680115 -0.462886006),SECO,medium_airport,Francisco De Orellana Airport,-0.462886006,-76.98680115,834,South America,EC,EC-D,Coca,yes,SECO,OCC,,3016
POINT (-78.98439789 -2.8894701),SECU,medium_airport,Mariscal Lamar Airport,-2.8894701,-78.98439789,8306,South America,EC,EC-A,Cuenca,yes,SECU,CUE,,3017
POINT (-79.88359833 -2.15741992),SEGU,medium_airport,José Joaquín de Olmedo International Airport,-2.15741992,-79.88359833,19,South America,EC,EC-G,Guayaquil,yes,SEGU,GYE,,3018
POINT (-78.61579895 -0.906832993),SELT,large_airport,Cotopaxi International Airport,-0.906832993,-78.61579895,9205,South America,EC,EC-X,Latacunga,yes,SELT,LTX,,3019
POINT (-78.1207962 -2.299170017),SEMC,medium_airport,Coronel E Carvajal Airport,-2.299170017,-78.1207962,3452,South America,EC,EC-S,Macas,yes,SEMC,XMS,,3020
POINT (-80.67880249 -0.946078002),SEMT,medium_airport,Eloy Alfaro International Airport,-0.946078002,-80.67880249,48,South America,EC,EC-M,Manta,yes,SEMT,MEC,,3021
POINT (-78.3575 -0.129166667),SEQM,large_airport,Mariscal Sucre International Airport,-0.129166667,-78.3575,7841,South America,EC,EC-P,Quito,yes,SEQM,UIO,screening,3022
POINT (-77.70809937 0.809505999),SETU,medium_airport,Teniente Coronel Luis a Mantilla Airport,0.809505999,-77.70809937,9649,South America,EC,EC-C,Tulcán,yes,SETU,TUA,,3023
POINT (-79.996957 -3.441986),SERO,medium_airport,Santa Rosa International Airport,-3.441986,-79.996957,20,South America,EC,EC-O,Santa Rosa,yes,SERO,ETR,,3024
POINT (-58.44720078 -51.82279968),EGYP,medium_airport,Mount Pleasant Airport,-51.82279968,-58.44720078,244,South America,FK,FK-U-A,Mount Pleasant,yes,EGYP,MPN,,3025
POINT (-57.77759933 -51.68569946),SFAL,medium_airport,Port Stanley Airport,-51.68569946,-57.77759933,75,South America,FK,FK-U-A,Stanley,yes,SFAL,PSY,,3026
POINT (-52.36040115 4.819809914),SOCA,medium_airport,Cayenne-Rochambeau Airport,4.819809914,-52.36040115,26,South America,GF,GF-CY,Cayenne / Rochambeau,yes,SOCA,CAY,,3027
POINT (-59.49148178 5.172754765),PKSA,medium_airport,Kaieteur International Airport,5.172754765,-59.49148178,1520,South America,GY,GY-PT,Kaieteur Falls,yes,SYKA,KAI,,3028
POINT (-58.2541008 6.498549938),SYCJ,medium_airport,Cheddi Jagan International Airport,6.498549938,-58.2541008,95,South America,GY,GY-DE,Georgetown,yes,SYCJ,GEO,screening,3029
POINT (-58.10589981 6.806280136),SYGO,medium_airport,Ogle Airport,6.806280136,-58.10589981,10,South America,GY,GY-DE,Ogle,yes,SYGO,OGL,,3030
POINT (-59.78939819 3.372760057),SYLT,medium_airport,Lethem Airport,3.372760057,-59.78939819,351,South America,GY,GY-UT,Lethem,yes,SYLT,LTM,,3031
POINT (-74.57430267 -8.377940178),SPCL,medium_airport,Cap FAP David Abenzur Rengifo International Airport,-8.377940178,-74.57430267,513,South America,PE,PE-UCA,Pucallpa,yes,SPCL,PCL,,3032
POINT (-78.52380371 -9.149609566),SPEO,medium_airport,Teniente FAP Jaime A De Montreuil Morales Airport,-9.149609566,-78.52380371,69,South America,PE,PE-ANC,Chimbote,yes,SPEO,CHM,,3033
POINT (-79.82810211 -6.787479877),SPHI,medium_airport,Capitan FAP Jose A Quinones Gonzales International Airport,-6.787479877,-79.82810211,97,South America,PE,PE-LAM,Chiclayo,yes,SPHI,CIX,Restrictions,3034
POINT (-74.20439911 -13.15480042),SPHO,medium_airport,Coronel FAP Alfredo Mendivil Duarte Airport,-13.15480042,-74.20439911,8917,South America,PE,PE-AYA,Ayacucho,yes,SPHO,AYP,,3035
POINT (-77.114304 -12.0219),SPIM,large_airport,Jorge Chávez International Airport,-12.0219,-77.114304,113,South America,PE,PE-LIM,Lima,yes,SPJC,LIM,Restrictions,3036
POINT (-78.774002 -5.59248),SPJE,medium_airport,Shumba Airport,-5.59248,-78.774002,2477,South America,PE,PE-CAJ,Jaén,yes,SPJE,JAE,,3037
POINT (-75.4733963 -11.78310013),SPJJ,medium_airport,Francisco Carle Airport,-11.78310013,-75.4733963,11034,South America,PE,PE-JUN,Jauja,yes,SPJJ,JAU,,3038
POINT (-70.15820313 -15.46710014),SPJL,medium_airport,Inca Manco Capac International Airport,-15.46710014,-70.15820313,12552,South America,PE,PE-PUN,Juliaca,yes,SPJL,JUL,Restrictions,3039
POINT (-78.48940277 -7.139180183),SPJR,medium_airport,Mayor General FAP Armando Revoredo Iglesias Airport,-7.139180183,-78.48940277,8781,South America,PE,PE-CAJ,Cajamarca,yes,SPJR,CJA,,3040
POINT (-80.38140106 -3.55253005),SPME,medium_airport,Capitan FAP Pedro Canga Rodriguez Airport,-3.55253005,-80.38140106,115,South America,PE,PE-TUM,Tumbes,yes,SPME,TBP,,3041
POINT (-76.11820221 -5.893770218),SPMS,medium_airport,Moises Benzaquen Rengifo Airport,-5.893770218,-76.11820221,587,South America,PE,PE-LOR,Yurimaguas,yes,SPMS,YMS,,3042
POINT (-76.20480347 -9.878809929),SPNC,medium_airport,Alferez Fap David Figueroa Fernandini Airport,-9.878809929,-76.20480347,6070,South America,PE,PE-HUC,Huánuco,yes,SPNC,HUU,,3043
POINT (-73.30879974 -3.784739971),SPQT,medium_airport,Coronel FAP Francisco Secada Vignetta International Airport,-3.784739971,-73.30879974,306,South America,PE,PE-LOR,Iquitos,yes,SPQT,IQT,Restrictions,3044
POINT (-71.58309937 -16.34110069),SPQU,medium_airport,Rodríguez Ballón International Airport,-16.34110069,-71.58309937,8405,South America,PE,PE-ARE,Arequipa,yes,SPQU,AQP,Restrictions,3045
POINT (-79.1088028 -8.081410408),SPRU,medium_airport,Capitan FAP Carlos Martinez De Pinillos International Airport,-8.081410408,-79.1088028,106,South America,PE,PE-LAL,Trujillo,yes,SPRU,TRU,Restrictions,3046
POINT (-76.37319946 -6.508739948),SPST,medium_airport,Cadete FAP Guillermo Del Castillo Paredes Airport,-6.508739948,-76.37319946,869,South America,PE,PE-SAM,Tarapoto,yes,SPST,TPP,,3047
POINT (-70.27580261 -18.05330086),SPTN,medium_airport,Coronel FAP Carlos Ciriani Santa Rosa International Airport,-18.05330086,-70.27580261,1538,South America,PE,PE-TAC,Tacna,yes,SPTN,TCQ,Restrictions,3048
POINT (-69.22859955 -12.61359978),SPTU,medium_airport,Padre Aldamiz International Airport,-12.61359978,-69.22859955,659,South America,PE,PE-MDD,Puerto Maldonado,yes,SPTU,PEM,Restrictions,3049
POINT (-80.61640167 -5.205749989),SPUR,medium_airport,Capitán FAP Guillermo Concha Iberico International Airport,-5.205749989,-80.61640167,120,South America,PE,PE-PIU,Piura,yes,SPUR,PIU,Restrictions,3050
POINT (-81.25409698 -4.576640129),SPYL,medium_airport,Capitan Montes Airport,-4.576640129,-81.25409698,282,South America,PE,PE-PIU,Talara,yes,SPYL,TYL,,3051
POINT (-74.96150208 -14.85400009),SPZA,medium_airport,Maria Reiche Neuman Airport,-14.85400009,-74.96150208,1860,South America,PE,PE-ICA,Nazca,yes,SPZA,NZC,,3052
POINT (-71.938797 -13.53569984),SPZO,large_airport,Alejandro Velasco Astete International Airport,-13.53569984,-71.938797,10860,South America,PE,PE-CUS,Cusco,yes,SPZO,CUZ,Restrictions,3053
POINT (-57.52000046 -25.23999977),SGAS,medium_airport,Silvio Pettirossi International Airport,-25.23999977,-57.52000046,292,South America,PY,PY-11,Asunción,yes,SGAS,ASU,,3054
POINT (-54.842682 -25.454516),SGES,medium_airport,Guarani International Airport,-25.454516,-54.842682,846,South America,PY,PY-10,Ciudad del Este,yes,SGES,AGT,,3055
POINT (-55.18780136 5.452829838),SMJP,medium_airport,Johan Adolf Pengel International Airport,5.452829838,-55.18780136,59,South America,SR,SR-PR,Zandery,yes,SMJP,PBM,,3056
POINT (-56.03079987 -34.83840179),SUMU,large_airport,Carrasco International /General C L Berisso Airport,-34.83840179,-56.03079987,105,South America,UY,UY-MO,Montevideo,yes,SUMU,MVD,,3057
POINT (-69.23786926 9.553375244),SVAC,medium_airport,Oswaldo Guevara Mujica Airport,9.553375244,-69.23786926,640,South America,VE,VE-P,Acarigua,yes,SVAC,AGV,,3058
POINT (-64.68920135 10.10709953),SVBC,medium_airport,General Jose Antonio Anzoategui International Airport,10.10709953,-64.68920135,26,South America,VE,VE-B,Barcelona,yes,SVBC,BLA,,3059
POINT (-70.22080231 8.619569778),SVBI,medium_airport,Barinas Airport,8.619569778,-70.22080231,666,South America,VE,VE-E,Barinas,yes,SVBI,BNS,,3060
POINT (-69.35861969 10.04274654),SVBM,medium_airport,Barquisimeto International Airport,10.04274654,-69.35861969,2042,South America,VE,VE-K,Barquisimeto,yes,SVBM,BRM,,3061
POINT (-67.64942169 10.24997807),SVBS,medium_airport,Escuela Mariscal Sucre Airport,10.24997807,-67.64942169,1338,South America,VE,VE-D,Maracay,yes,SVBS,MYC,,3062
POINT (-62.85443115 6.231988907),SVCN,medium_airport,Canaima Airport,6.231988907,-62.85443115,1450,South America,VE,VE-F,Canaima,yes,SVCN,CAJ,,3063
POINT (-63.2616806 10.66001415),SVCP,medium_airport,General Francisco Bermúdez Airport,10.66001415,-63.2616806,33,South America,VE,VE-R,Carúpano,yes,SVCP,CUP,,3064
POINT (-69.68090057 11.4149437),SVCR,medium_airport,José Leonardo Chirinos Airport,11.4149437,-69.68090057,52,South America,VE,VE-I,Coro,yes,SVCR,CZE,,3065
POINT (-64.13047028 10.45033264),SVCU,medium_airport,Cumaná (Antonio José de Sucre) Airport,10.45033264,-64.13047028,14,South America,VE,VE-R,,yes,SVCU,CUM,,3066
POINT (-70.15149689 11.78077507),SVJC,medium_airport,Josefa Camejo International Airport,11.78077507,-70.15149689,75,South America,VE,VE-I,Paraguaná,yes,SVJC,LSP,,3067
POINT (-71.7278595 10.55820847),SVMC,medium_airport,La Chinita International Airport,10.55820847,-71.7278595,239,South America,VE,VE-V,Maracaibo,yes,SVMC,MAR,,3068
POINT (-71.16104126 8.58207798),SVMD,medium_airport,Alberto Carnevalli Airport,8.58207798,-71.16104126,5007,South America,VE,VE-L,Mérida,yes,SVMD,MRD,,3069
POINT (-63.96659851 10.91260338),SVMG,medium_airport,Del Caribe Santiago Mariño International Airport,10.91260338,-63.96659851,74,South America,VE,VE-O,Isla Margarita,yes,SVMG,PMV,,3070
POINT (-66.99058533 10.60311699),SVMI,medium_airport,Simón Bolívar International Airport,10.60311699,-66.99058533,235,South America,VE,VE-X,Caracas,yes,SVMI,CCS,,3071
POINT (-63.1473999 9.754529953),SVMT,medium_airport,Maturín Airport,9.754529953,-63.1473999,224,South America,VE,VE-N,,yes,SVMT,MUN,,3072
POINT (-67.60610199 5.619989872),SVPA,medium_airport,Cacique Aramare Airport,5.619989872,-67.60610199,245,South America,VE,VE-Z,Puerto Ayacucho,yes,SVPA,PYH,,3073
POINT (-62.76039886 8.28853035),SVPR,medium_airport,General Manuel Carlos Piar International Airport,8.28853035,-62.76039886,472,South America,VE,VE-F,Puerto Ordaz-Ciudad Guayana,yes,SVPR,PZO,,3074
POINT (-72.43969727 7.840829849),SVSA,medium_airport,San Antonio Del Tachira Airport,7.840829849,-72.43969727,1312,South America,VE,VE-S,,yes,SVSA,SVZ,,3075
POINT (-72.03510284 7.565380096),SVSO,medium_airport,Mayor Buenaventura Vivas International Airport,7.565380096,-72.03510284,1083,South America,VE,VE-S,Santo Domingo,yes,SVSO,STD,,3076
POINT (-64.1510849 8.945146561),SVST,medium_airport,San Tomé Airport,8.945146561,-64.1510849,861,South America,VE,VE-B,El Tigre,yes,SVST,SOM,,3077
POINT (-67.92839813 10.14973259),SVVA,medium_airport,Arturo Michelena International Airport,10.14973259,-67.92839813,1411,South America,VE,VE-G,Valencia,yes,SVVA,VLN,,3078
POINT (-71.67266846 8.624138832),SVVG,medium_airport,Juan Pablo Pérez Alfonso Airport,8.624138832,-71.67266846,250,South America,VE,VE-L,El Vigía,yes,SVVG,VIG,,3079
POINT (-70.58406067 9.340477943),SVVL,medium_airport,Dr. Antonio Nicolás Briceño Airport,9.340477943,-70.58406067,2060,South America,VE,VE-T,Valera,yes,SVVL,VLV,,3080
POINT (14.24699974 -6.269899845),FNBC,medium_airport,Mbanza Congo Airport,-6.269899845,14.24699974,1860,Africa,AO,AO-ZAI,Mbanza Congo,yes,FNBC,SSY,,1
POINT (12.18840027 -5.596990108),FNCA,medium_airport,Cabinda Airport,-5.596990108,12.18840027,66,Africa,AO,AO-CAB,Cabinda,yes,FNCA,CAB,,2
POINT (20.81850052 -7.400889874),FNDU,medium_airport,Dundo Airport,-7.400889874,20.81850052,2451,Africa,AO,AO-LNO,Chitato,yes,FNDU,DUE,,3
POINT (15.68379974 -17.0435009),FNGI,medium_airport,Ngjiva Pereira Airport,-17.0435009,15.68379974,3566,Africa,AO,AO-CNN,Ngiva,yes,FNGI,VPE,,4
POINT (15.76049995 -12.80889988),FNHU,medium_airport,Nova Lisboa Airport,-12.80889988,15.76049995,5587,Africa,AO,AO-HUA,Huambo,yes,FNHU,NOV,,5
POINT (13.23120022 -8.858369827),FNLU,medium_airport,Quatro de Fevereiro Airport,-8.858369827,13.23120022,243,Africa,AO,AO-LUA,Luanda,yes,FNLU,LAD,,6
POINT (16.31240082 -9.525090218),FNMA,medium_airport,Malanje Airport,-9.525090218,16.31240082,3868,Africa,AO,AO-MAL,Malanje,yes,FNMA,MEG,,7
POINT (17.71980095 -14.6576004),FNME,medium_airport,Menongue Airport,-14.6576004,17.71980095,4469,Africa,AO,AO-CCU,Menongue,yes,FNME,SPP,,8
POINT (12.14680004 -15.26119995),FNMO,medium_airport,Namibe Airport,-15.26119995,12.14680004,210,Africa,AO,AO-NAM,Namibe,yes,FNMO,MSZ,,9
POINT (15.2876997 -7.754509926),FNNG,medium_airport,Negage Airport,-7.754509926,15.2876997,4105,Africa,AO,AO-UIG,Negage,yes,FNNG,GXG,,10
POINT (12.37180042 -6.141089916),FNSO,medium_airport,Soyo Airport,-6.141089916,12.37180042,15,Africa,AO,AO-ZAI,Soyo,yes,FNSO,SZA,,11
POINT (13.57499981 -14.92469978),FNUB,medium_airport,Lubango Airport,-14.92469978,13.57499981,5778,Africa,AO,AO-HUI,Lubango,yes,FNUB,SDD,,12
POINT (13.4869 -12.4792),FNCT,medium_airport,Catumbela Airport,-12.4792,13.4869,23,Africa,AO,AO-BGU,Catumbela,yes,FNCT,CBT,,13
POINT (-1.512420058 12.35319996),DFFD,medium_airport,Ouagadougou Airport,12.35319996,-1.512420058,1037,Africa,BF,BF-KAD,Ouagadougou,yes,DFFD,OUA,,14
POINT (-4.33096981 11.16009998),DFOO,medium_airport,Bobo Dioulasso Airport,11.16009998,-4.33096981,1511,Africa,BF,BF-HOU,Bobo Dioulasso,yes,DFOO,BOY,,15
POINT (29.31850052 -3.324019909),HBBA,medium_airport,Bujumbura International Airport,-3.324019909,29.31850052,2582,Africa,BI,BI-BJ,Bujumbura,yes,HBBA,BJM,,16
POINT (2.384350061 6.357230186),DBBB,medium_airport,Cadjehoun Airport,6.357230186,2.384350061,19,Africa,BJ,BJ-AQ,Cotonou,yes,DBBB,COO,,17
POINT (27.47450066 -21.1595993),FBFT,medium_airport,Francistown Airport,-21.1595993,27.47450066,3283,Africa,BW,BW-NE,Francistown,yes,FBFT,FRW,,18
POINT (24.69099998 -24.60230064),FBJW,medium_airport,Jwaneng Airport,-24.60230064,24.69099998,3900,Africa,BW,BW-SO,,yes,FBJW,JWA,,19
POINT (25.16239929 -17.83289909),FBKE,medium_airport,Kasane Airport,-17.83289909,25.16239929,3289,Africa,BW,BW-NW,Kasane,yes,FBKE,BBK,,20
POINT (23.43110085 -19.97260094),FBMN,medium_airport,Maun Airport,-19.97260094,23.43110085,3093,Africa,BW,BW-NW,Maun,yes,FBMN,MUB,,21
POINT (25.91819954 -24.55520058),FBSK,medium_airport,Sir Seretse Khama International Airport,-24.55520058,25.91819954,3299,Africa,BW,BW-SE,Gaborone,yes,FBSK,GBE,,22
POINT (27.8288 -22.0583),FBSP,medium_airport,Selebi Phikwe Airport,-22.0583,27.8288,2925,Africa,BW,BW-CE,,yes,FBSP,PKW,,23
POINT (23.56900024 -6.121240139),FZWA,medium_airport,Mbuji Mayi Airport,-6.121240139,23.56900024,2221,Africa,CD,CD-KE,Mbuji Mayi,yes,FZWA,MJM,,24
POINT (18.78560066 -5.035769939),FZCA,medium_airport,Kikwit Airport,-5.035769939,18.78560066,1572,Africa,CD,CD-BN,,yes,FZCA,KKW,,25
POINT (15.44460011 -4.385749817),FZAA,medium_airport,Ndjili International Airport,-4.385749817,15.44460011,1027,Africa,CD,CD-KN,Kinshasa,yes,FZAA,FIH,Restrictions,26
POINT (17.38170052 -3.311320066),FZBO,medium_airport,Bandundu Airport,-3.311320066,17.38170052,1063,Africa,CD,CD-BN,,yes,FZBO,FDU,,27
POINT (18.2887001 0.022600001),FZEA,medium_airport,Mbandaka Airport,0.022600001,18.2887001,1040,Africa,CD,CD-EQ,Mbandaka,yes,FZEA,MDK,,28
POINT (20.97529984 4.253210068),FZFD,medium_airport,Gbadolite Airport,4.253210068,20.97529984,1509,Africa,CD,CD-EQ,,yes,FZFD,BDT,,29
POINT (19.77129936 3.235369921),FZFK,medium_airport,Gemena Airport,3.235369921,19.77129936,1378,Africa,CD,CD-EQ,Gemena,yes,FZFK,GMA,,30
POINT (25.33799934 0.481638998),FZIC,medium_airport,Bangoka International Airport,0.481638998,25.33799934,1417,Africa,CD,CD-OR,Kisangani,yes,FZIC,FKI,Restrictions,31
POINT (27.5883007 2.827610016),FZJH,medium_airport,Matari Airport,2.827610016,27.5883007,2438,Africa,CD,CD-OR,,yes,FZJH,IRP,,32
POINT (30.2208004 1.565719962),FZKA,medium_airport,Bunia Airport,1.565719962,30.2208004,4045,Africa,CD,CD-OR,,yes,FZKA,BUX,,33
POINT (29.2385006 -1.670809984),FZNA,medium_airport,Goma International Airport,-1.670809984,29.2385006,5089,Africa,CD,CD-NK,Goma,yes,FZNA,GOM,Restrictions,34
POINT (25.91539955 -2.919179916),FZOA,medium_airport,Kindu Airport,-2.919179916,25.91539955,1630,Africa,CD,CD-MA,Kindu,yes,FZOA,KND,,35
POINT (27.53089905 -11.59130001),FZQA,medium_airport,Lubumbashi International Airport,-11.59130001,27.53089905,4295,Africa,CD,CD-KA,Lubumbashi,yes,FZQA,FBM,Restrictions,36
POINT (25.50569916 -10.76589966),FZQM,medium_airport,Kolwezi Airport,-10.76589966,25.50569916,5007,Africa,CD,CD-KA,,yes,FZQM,KWZ,,37
POINT (29.25 -5.875559807),FZRF,medium_airport,Kalemie Airport,-5.875559807,29.25,2569,Africa,CD,CD-KA,,yes,FZRF,FMI,,38
POINT (22.46920013 -5.900050163),FZUA,medium_airport,Kananga Airport,-5.900050163,22.46920013,2139,Africa,CD,CD-KW,Kananga,yes,FZUA,KGA,,39
POINT (18.51880074 4.398479939),FEFF,medium_airport,Bangui M'Poko International Airport,4.398479939,18.51880074,1208,Africa,CF,CF-MP,Bangui,yes,FEFF,BGF,,40
POINT (15.25300026 -4.251699924),FCBB,medium_airport,Maya-Maya Airport,-4.251699924,15.25300026,1048,Africa,CG,CG-12,Brazzaville,yes,FCBB,BZV,,41
POINT (11.88659954 -4.816030025),FCPP,medium_airport,Pointe Noire Airport,-4.816030025,11.88659954,55,Africa,CG,CG-5,Pointe Noire,yes,FCPP,PNR,,42
POINT (12.6599 -4.20635),FCPL,medium_airport,Ngot Nzoungou Airport,-4.20635,12.6599,1079,Africa,CG,CG-9,Dolisie,yes,FCPD,DIS,,43
POINT (-3.926290035 5.261390209),DIAP,medium_airport,Port Bouet Airport,5.261390209,-3.926290035,21,Africa,CI,CI-01,Abidjan,yes,DIAP,ABJ,,44
POINT (-5.07366991 7.738800049),DIBK,medium_airport,Bouaké Airport,7.738800049,-5.07366991,1230,Africa,CI,CI-04,,yes,DIBK,BYK,,45
POINT (9.719479561 4.006080151),FKKD,medium_airport,Douala International Airport,4.006080151,9.719479561,33,Africa,CM,CM-LT,Douala,yes,FKKD,DLA,,46
POINT (14.25739956 10.4513998),FKKL,medium_airport,Salak Airport,10.4513998,14.25739956,1390,Africa,CM,CM-EN,Maroua,yes,FKKL,MVR,,47
POINT (13.55920029 7.357009888),FKKN,medium_airport,N'Gaoundéré Airport,7.357009888,13.55920029,3655,Africa,CM,CM-AD,N'Gaoundéré,yes,FKKN,NGE,,48
POINT (13.37010002 9.335889816),FKKR,medium_airport,Garoua International Airport,9.335889816,13.37010002,794,Africa,CM,CM-NO,Garoua,yes,FKKR,GOU,,49
POINT (11.5532999 3.722559929),FKYS,medium_airport,Yaoundé Nsimalen International Airport,3.722559929,11.5532999,2278,Africa,CM,CM-CE,Yaoundé,yes,FKYS,NSI,,50
POINT (11.52350044 3.83604002),FKKY,medium_airport,Yaoundé Airport,3.83604002,11.52350044,2464,Africa,CM,CM-CE,Yaoundé,yes,FKKY,YAO,,51
POINT (-22.94939995 16.74139977),GVAC,medium_airport,Amílcar Cabral International Airport,16.74139977,-22.94939995,177,Africa,CV,CV-B,Espargos,yes,GVAC,SID,,52
POINT (-23.49349976 14.92450047),GVNP,medium_airport,Praia International Airport,14.92450047,-23.49349976,230,Africa,CV,CV-S,Praia,yes,GVNP,RAI,,53
POINT (-22.88890076 16.1364994),GVBA,medium_airport,Rabil Airport,16.1364994,-22.88890076,69,Africa,CV,CV-B,Rabil,yes,GVBA,BVC,,54
POINT (-23.21369934 15.1559),GVMA,medium_airport,Maio Airport,15.1559,-23.21369934,36,Africa,CV,CV-S,Vila do Maio,yes,GVMA,MMO,,55
POINT (-24.28470039 16.58839989),GVSN,medium_airport,Preguiça Airport,16.58839989,-24.28470039,669,Africa,CV,CV-B,Preguiça,yes,GVSN,SNE,,56
POINT (43.15950012 11.54730034),HDAM,medium_airport,Djibouti-Ambouli Airport,11.54730034,43.15950012,49,Africa,DJ,DJ-DJ,Djibouti City,yes,HDAM,JIB,,57
POINT (5.069920063 36.7120018),DAAE,medium_airport,Soummam Airport,36.7120018,5.069920063,20,Africa,DZ,DZ-06,Béjaïa,yes,DAAE,BJA,,58
POINT (3.215409994 36.69100189),DAAG,large_airport,Houari Boumediene Airport,36.69100189,3.215409994,82,Africa,DZ,DZ-35,Algiers,yes,DAAG,ALG,,59
POINT (9.45244 24.292801),DAAJ,medium_airport,Djanet Inedbirene Airport,24.292801,9.45244,3176,Africa,DZ,DZ-33,Djanet,yes,DAAJ,DJG,,60
POINT (8.622650146 26.7234993),DAAP,medium_airport,Illizi Takhamalt Airport,26.7234993,8.622650146,1778,Africa,DZ,DZ-33,Illizi,yes,DAAP,VVZ,,61
POINT (5.451079845 22.81150055),DAAT,medium_airport,Aguenar – Hadj Bey Akhamok Airport,22.81150055,5.451079845,4518,Africa,DZ,DZ-11,Tamanrasset,yes,DAAT,TMR,,62
POINT (5.87361002 36.79510117),DAAV,medium_airport,Jijel Ferhat Abbas Airport,36.79510117,5.87361002,36,Africa,DZ,DZ-18,Jijel,yes,DAAV,GJL,,63
POINT (7.809169769 36.82220078),DABB,medium_airport,Annaba Airport,36.82220078,7.809169769,16,Africa,DZ,DZ-36,Annabah,yes,DABB,AAE,,64
POINT (6.620389938 36.27600098),DABC,medium_airport,Mohamed Boudiaf International Airport,36.27600098,6.620389938,2265,Africa,DZ,DZ-25,Constantine,yes,DABC,CZL,,65
POINT (8.12071991 35.43159866),DABS,medium_airport,Cheikh Larbi Tébessi Airport,35.43159866,8.12071991,2661,Africa,DZ,DZ-12,Tébessi,yes,DABS,TEE,,66
POINT (6.308589935 35.7521019),DABT,medium_airport,Batna Airport,35.7521019,6.308589935,2697,Africa,DZ,DZ-05,Batna,yes,DABT,BLJ,,67
POINT (-1.450000048 35.01670074),DAON,medium_airport,Zenata – Messali El Hadj Airport,35.01670074,-1.450000048,814,Africa,DZ,DZ-13,Tlemcen,yes,DAON,TLM,,68
POINT (-0.621182978 35.62390137),DAOO,medium_airport,Es Senia Airport,35.62390137,-0.621182978,295,Africa,DZ,DZ-31,Oran,yes,DAOO,ORN,,69
POINT (-0.186414003 27.83760071),DAUA,medium_airport,Touat Cheikh Sidi Mohamed Belkebir Airport,27.83760071,-0.186414003,919,Africa,DZ,DZ-01,,yes,DAUA,AZR,,70
POINT (2.859590054 30.57130051),DAUE,medium_airport,El Golea Airport,30.57130051,2.859590054,1306,Africa,DZ,DZ-47,,yes,DAUE,ELG,,71
POINT (3.79411006 32.38410187),DAUG,medium_airport,Noumérat - Moufdi Zakaria Airport,32.38410187,3.79411006,1512,Africa,DZ,DZ-47,Ghardaïa,yes,DAUG,GHA,,72
POINT (6.140439987 31.67300034),DAUH,medium_airport,Oued Irara Airport,31.67300034,6.140439987,463,Africa,DZ,DZ-30,Hassi Messaoud,yes,DAUH,HME,,73
POINT (2.512020111 27.25099945),DAUI,medium_airport,In Salah Airport,27.25099945,2.512020111,896,Africa,DZ,DZ-11,In Salah,yes,DAUI,INZ,,74
POINT (6.088669777 33.06779861),DAUK,medium_airport,Touggourt Sidi Madhi Airport,33.06779861,6.088669777,279,Africa,DZ,DZ-30,Touggourt,yes,DAUK,TGR,,75
POINT (6.776790142 33.51139832),DAUO,medium_airport,Guemar Airport,33.51139832,6.776790142,203,Africa,DZ,DZ-39,Guemar,yes,DAUO,ELU,,76
POINT (0.276033014 29.2371006),DAUT,medium_airport,Timimoun Airport,29.2371006,0.276033014,1027,Africa,DZ,DZ-01,Timimoun,yes,DAUT,TMX,,77
POINT (9.642910004 28.05150032),DAUZ,medium_airport,In Aménas Airport,28.05150032,9.642910004,1847,Africa,DZ,DZ-33,Aménas,yes,DAUZ,IAM,,78
POINT (3.311539888 32.93040085),DAFH,medium_airport,Hassi R'Mel Airport,32.93040085,3.311539888,2540,Africa,DZ,DZ-03,,yes,DAFH,HRM,,79
POINT (-8.167099953 27.7003994),DAOF,medium_airport,Tindouf Airport,27.7003994,-8.167099953,1453,Africa,DZ,DZ-37,Tindouf,yes,DAOF,TIN,,80
POINT (-2.269860029 31.64570045),DAOR,medium_airport,Béchar Boudghene Ben Ali Lotfi Airport,31.64570045,-2.269860029,2661,Africa,DZ,DZ-08,Béchar,yes,DAOR,CBH,,81
POINT (5.738230228 34.79330063),DAUB,medium_airport,Biskra Airport,34.79330063,5.738230228,289,Africa,DZ,DZ-07,Biskra,yes,DAUB,BSK,,82
POINT (5.412779808 31.91720009),DAUU,medium_airport,Ain el Beida Airport,31.91720009,5.412779808,492,Africa,DZ,DZ-30,Ouargla,yes,DAUU,OGX,,83
POINT (5.32449007 36.17810059),DAAS,medium_airport,Ain Arnat Airport,36.17810059,5.32449007,3360,Africa,DZ,DZ-19,Sétif,yes,DAAS,QSF,,84
POINT (31.01199913 27.04649925),HEAT,medium_airport,Assiut International Airport,27.04649925,31.01199913,772,Africa,EG,EG-WAD,Assiut,yes,HEAT,ATZ,Restrictions,85
POINT (29.94890022 31.18390083),HEAX,medium_airport,El Nouzha Airport,31.18390083,29.94890022,-6,Africa,EG,EG-ALX,Alexandria,yes,HEAX,ALY,,86
POINT (29.69639969 30.91769981),HEBA,medium_airport,Borg El Arab International Airport,30.91769981,29.69639969,177,Africa,EG,EG-ALX,Alexandria,yes,HEBA,HBE,Restrictions,87
POINT (31.61170006 22.37599945),HEBL,medium_airport,Abu Simbel Airport,22.37599945,31.61170006,616,Africa,EG,EG-ASN,Abu Simbel,yes,HEBL,ABS,,88
POINT (31.40559959 30.12190056),HECA,large_airport,Cairo International Airport,30.12190056,31.40559959,382,Africa,EG,EG-C,Cairo,yes,HECA,CAI,Restrictions,89
POINT (33.79940033 27.17830086),HEGN,large_airport,Hurghada International Airport,27.17830086,33.79940033,52,Africa,EG,EG-BA,Hurghada,yes,HEGN,HRG,Restrictions,90
POINT (32.7066 25.671),HELX,large_airport,Luxor International Airport,25.671,32.7066,294,Africa,EG,EG-KN,Luxor,yes,HELX,LXR,Restrictions,91
POINT (34.58369827 25.5571003),HEMA,medium_airport,Marsa Alam International Airport,25.5571003,34.58369827,251,Africa,EG,EG-BA,Marsa Alam,yes,HEMA,RMF,Restrictions,92
POINT (32.81999969 23.96439934),HESN,medium_airport,Aswan International Airport,23.96439934,32.81999969,662,Africa,EG,EG-ASN,Aswan,yes,HESN,ASW,Restrictions,93
POINT (31.742778 26.342778),HEMK,medium_airport,Sohag International Airport,26.342778,31.742778,310,Africa,EG,EG-SHG,Sohag,yes,HESG,HMB,,94
POINT (-15.932 23.7183),GMMH,medium_airport,Dakhla Airport,23.7183,-15.932,36,Africa,EH,EH-U-A,Dakhla,yes,GMMH,VIL,,95
POINT (-13.2192 27.151699),GMML,medium_airport,Hassan I Airport,27.151699,-13.2192,207,Africa,EH,EH-U-A,El Aaiún,yes,GMML,EUN,,96
POINT (-11.6847 26.7318),GMMA,medium_airport,Smara Airport,26.7318,-11.6847,350,Africa,EH,EH-U-A,Smara,yes,GMMA,SMW,,97
POINT (38.91070175 15.29189968),HHAS,medium_airport,Asmara International Airport,15.29189968,38.91070175,7661,Africa,ER,ER-SK,Asmara,yes,HHAS,ASM,,98
POINT (39.37009811 15.67000008),HHMS,medium_airport,Massawa International Airport,15.67000008,39.37009811,194,Africa,ER,ER-SK,Massawa,yes,HHMS,MSW,,99
POINT (42.64500046 13.07180023),HHSB,medium_airport,Assab International Airport,13.07180023,42.64500046,46,Africa,ER,ER-DK,Asab,yes,HHSB,ASA,,100
POINT (117.2979965 31.78000069),ZSOF,medium_airport,Hefei Luogang International Airport,31.78000069,117.2979965,108,Asia,CN,CN-34,Hefei,yes,ZSOF,HFE,Restrictions,101
POINT (121.8050003 31.14340019),ZSPD,large_airport,Shanghai Pudong International Airport,31.14340019,121.8050003,13,Asia,CN,CN-31,Shanghai,yes,ZSPD,PVG,Restrictions,102
POINT (120.3740005 36.26610184),ZSQD,medium_airport,Liuting Airport,36.26610184,120.3740005,33,Asia,CN,CN-37,Qingdao,yes,ZSQD,TAO,Restrictions,103
POINT (121.3359985 31.19790077),ZSSS,large_airport,Shanghai Hongqiao International Airport,31.19790077,121.3359985,10,Asia,CN,CN-31,Shanghai,yes,ZSSS,SHA,Restrictions,104
POINT (122.2289963 37.18709946),ZSWH,medium_airport,Weihai Airport,37.18709946,122.2289963,145,Asia,CN,CN-37,Weihai,yes,ZSWH,WEH,Restrictions,105
POINT (117.555278 34.059056),ZSXZ,medium_airport,Xuzhou Guanyin Airport,34.059056,117.555278,*****,Asia,CN,CN-32,Xuzhou,yes,ZSXZ,XUZ,Restrictions,106
POINT (121.3720016 37.40169907),ZSYT,medium_airport,Yantai Laishan Airport,37.40169907,121.3720016,59,Asia,CN,CN-37,Yantai,yes,ZSYT,YNT,Restrictions,107
POINT (106.6419983 29.71920013),ZUCK,large_airport,Chongqing Jiangbei International Airport,29.71920013,106.6419983,1365,Asia,CN,CN-50,Chongqing,yes,ZUCK,CKG,Restrictions,108
POINT (105.6900024 -10.45059967),YPXM,medium_airport,Christmas Island Airport,-10.45059967,105.6900024,916,Asia,CX,CX-U-A,Christmas Island,yes,YPXM,XCH,,109
POINT (33.724358 35.235947),CY-0002,medium_airport,Geçitkale Air Base,35.235947,33.724358,146,Asia,CY,CY-03,Geçitkale,yes,LCGK,GEC,,110
POINT (33.49610138 35.15470123),LCEN,medium_airport,Ercan International Airport,35.15470123,33.49610138,404,Asia,CY,CY-02,Nicosia,yes,LCEN,ECN,,111
POINT (33.62490082 34.87509918),LCLK,large_airport,Larnaca International Airport,34.87509918,33.62490082,8,Asia,CY,CY-04,Larnarca,yes,LCLK,LCA,,112
POINT (32.4856987 34.7179985),LCPH,large_airport,Paphos International Airport,34.7179985,32.4856987,41,Asia,CY,CY-06,Paphos,yes,LCPH,PFO,,113
POINT (33.83580017 31.07329941),HEAR,medium_airport,El Arish International Airport,31.07329941,33.83580017,121,Asia,EG,EG-SIN,El Arish,yes,HEAR,AAC,,114
POINT (34.39500046 27.97730064),HESH,medium_airport,Sharm El Sheikh International Airport,27.97730064,34.39500046,143,Asia,EG,EG-JS,Sharm el-Sheikh,yes,HESH,SSH,Restrictions,115
POINT (42.48260117 42.17670059),UGKO,medium_airport,Kopitnari Airport,42.17670059,42.48260117,223,Asia,GE,GE-IM,Kutaisi,yes,UGKO,KUT,,116
POINT (41.59970093 41.61029816),UGSB,medium_airport,Batumi International Airport,41.61029816,41.59970093,105,Asia,GE,GE-AJ,Batumi,yes,UGSB,BUS,,117
POINT (44.95470047 41.6692009),UGTB,large_airport,Tbilisi International Airport,41.6692009,44.95470047,1624,Asia,GE,GE-TB,Tbilisi,yes,UGTB,TBS,Restrictions,118
POINT (41.12810135 42.85820007),UGSS,medium_airport,Sukhumi Dranda Airport,42.85820007,41.12810135,53,Asia,GE,GE-AB,Sukhumi,yes,UGSS,SUI,,119
POINT (113.9150009 22.30890083),VHHH,large_airport,Chek Lap Kok International Airport,22.30890083,113.9150009,28,Asia,HK,HK-U-A,Hong Kong,yes,VHHH,HKG,Restrictions,120
POINT (127.3809967 0.831413984),WAMT,medium_airport,Sultan Khairun Babullah Airport,0.831413984,127.3809967,49,Asia,ID,ID-MU,Sango-Ternate Island,yes,WAMT,TTE,,121
POINT (115.435997 -2.216559887),WAON,medium_airport,Warukin Airport,-2.216559887,115.435997,197,Asia,ID,ID-KS,Tanta-Tabalong-Borneo Island,yes,WAON,TJG,,122
POINT (132.7310028 -5.66162014),WAPL,medium_airport,Dumatumbun Airport,-5.66162014,132.7310028,10,Asia,ID,ID-MA,Langgur-Seram Island,yes,WAPL,LUV,,123
POINT (128.0890045 -3.710259914),WAPP,medium_airport,"Pattimura Airport, Ambon",-3.710259914,128.0890045,33,Asia,ID,ID-MA,Ambon,yes,WAPP,AMQ,,124
POINT (112.7870026 -7.379829884),WARR,large_airport,Juanda International Airport,-7.379829884,112.7870026,9,Asia,ID,ID-JI,Surabaya,yes,WARR,SUB,Restrictions,125
POINT (132.2669983 -2.920190096),WASF,medium_airport,Fakfak Airport,-2.920190096,132.2669983,462,Asia,ID,ID-PB,Fakfak-Papua Island,yes,WASF,FKQ,,126
POINT (133.6959991 -3.644520044),WASK,medium_airport,Kaimana Airport,-3.644520044,133.6959991,19,Asia,ID,ID-PB,Kaimana-Papua Island,yes,WASK,KNG,,127
POINT (134.048996 -0.891833007),WASR,medium_airport,Rendani Airport,-0.891833007,134.048996,23,Asia,ID,ID-PB,Manokwari-Papua Island,yes,WASR,MKW,,128
POINT (105.175556 -5.240556),WIAT,medium_airport,Radin Inten II (Branti) Airport,-5.240556,105.175556,282,Asia,ID,ID-LA,Bandar Lampung-Sumatra Island,yes,WICT,TKG,,129
POINT (101.4449997 0.460786015),WIBB,medium_airport,Sultan Syarif Kasim Ii (Simpang Tiga) Airport,0.460786015,101.4449997,102,Asia,ID,ID-RI,Pekanbaru-Sumatra Island,yes,WIBB,PKU,,130
POINT (101.433998 1.60919),WIBD,medium_airport,Pinang Kampai Airport,1.60919,101.433998,55,Asia,ID,ID-RI,Dumai-Sumatra Island,yes,WIBD,DUM,,131
POINT (107.5759964 -6.900629997),WICC,medium_airport,Husein Sastranegara International Airport,-6.900629997,107.5759964,2436,Asia,ID,ID-JB,Bandung-Java Island,yes,WICC,BDO,Restrictions,132
POINT (104.1190033 1.121029973),WIDD,medium_airport,Hang Nadim International Airport,1.121029973,104.1190033,126,Asia,ID,ID-RI,Batam Island,yes,WIDD,BTH,Restrictions,133
POINT (106.8909988 -6.266610146),WIHH,medium_airport,Halim Perdanakusuma International Airport,-6.266610146,106.8909988,84,Asia,ID,ID-JK,Jakarta,yes,WIHH,HLP,Restrictions,134
POINT (109.0339966 -7.645060062),WIHL,medium_airport,Tunggul Wulung Airport,-7.645060062,109.0339966,69,Asia,ID,ID-JT,Cilacap-Java Island,yes,WIHL,CXP,,135
POINT (106.6559982 -6.12556982),WIII,large_airport,Soekarno-Hatta International Airport,-6.12556982,106.6559982,34,Asia,ID,ID-BT,Jakarta,yes,WIII,CGK,Restrictions,136
POINT (97.70469666 1.166380048),WIMB,medium_airport,Binaka Airport,1.166380048,97.70469666,20,Asia,ID,ID-SU,Gunung Sitoli-Nias Island,yes,WIMB,GNS,,137
POINT (99.430496 1.4001),WIME,medium_airport,Aek Godang Airport,1.4001,99.430496,922,Asia,ID,ID-SU,Padang Sidempuan-Sumatra Island,yes,WIME,AEG,,138
POINT (100.3519974 -0.874988973),WIMG,medium_airport,Tabing Airport,-0.874988973,100.3519974,9,Asia,ID,ID-SB,Padang-Sumatra Island,yes,WIMG,PDG,,139
POINT (111.7480011 -0.348868996),WIOG,medium_airport,Nanga Pinoh Airport,-0.348868996,111.7480011,123,Asia,ID,ID-KB,Nanga Pinoh-Borneo Island,yes,WIOG,NPO,,140
POINT (109.9629974 -1.816640019),WIOK,medium_airport,Ketapang(Rahadi Usman) Airport,-1.816640019,109.9629974,46,Asia,ID,ID-KB,Ketapang-Borneo Island,yes,WIOK,KTG,,141
POINT (108.3880005 3.908710003),WION,medium_airport,Ranai Airport,3.908710003,108.3880005,7,Asia,ID,ID-RI,Ranai-Natuna Besar Island,yes,WION,NTX,,142
POINT (109.4039993 -0.150711),WIOO,medium_airport,Supadio Airport,-0.150711,109.4039993,10,Asia,ID,ID-KB,Pontianak-Borneo Island,yes,WIOO,PNK,,143
POINT (112.9369965 0.835578024),WIOP,medium_airport,Pangsuma Airport,0.835578024,112.9369965,297,Asia,ID,ID-KB,Putussibau-Borneo Island,yes,WIOP,PSU,,144
POINT (111.4729996 0.063619003),WIOS,medium_airport,Sintang(Susilo) Airport,0.063619003,111.4729996,98,Asia,ID,ID-KB,Sintang-Borneo Island,yes,WIOS,SQG,,145
POINT (102.338997 -3.8637),WIPL,medium_airport,Fatmawati Soekarno Airport,-3.8637,102.338997,50,Asia,ID,ID-BE,Bengkulu-Sumatra Island,yes,WIGG,BKS,,146
POINT (104.6999969 -2.898250103),WIPP,medium_airport,Sultan Mahmud Badaruddin II Airport,-2.898250103,104.6999969,49,Asia,ID,ID-SS,Palembang-Sumatra Island,yes,WIPP,PLM,,147
POINT (103.8799973 -3.286070108),WIPQ,medium_airport,Pendopo Airport,-3.286070108,103.8799973,184,Asia,ID,ID-SS,Talang Gudang-Sumatra Island,yes,WIPQ,PDO,,148
POINT (100.2809982 -0.786916971),WIPT,medium_airport,Minangkabau Airport,-0.786916971,100.2809982,18,Asia,ID,ID-SB,Ketaping/Padang-Sumatra Island,yes,WIPT,PDG,,149
POINT (95.42063713 5.522872024),WITT,medium_airport,Sultan Iskandar Muda International Airport,5.522872024,95.42063713,65,Asia,ID,ID-AC,Banda Aceh,yes,WITT,BTJ,Restrictions,150
POINT (116.276675 -8.757322),WADL,medium_airport,Lombok International Airport,-8.757322,116.276675,319,Asia,ID,ID-NB,Mataram,yes,WADL,LOP,Restrictions,151
POINT (131.287 -0.894),WAXX,large_airport,Dominique Edward Osok Airport,-0.894,131.287,10,Asia,ID,ID-PB,Sorong-Papua Island,yes,WASS,SOQ,,152
POINT (117.255556 -0.373611),ID-0017,large_airport,Sungai Siring International Airport,-0.373611,117.255556,82,Asia,ID,ID-KI,Samarinda,yes,,,Restrictions,153
POINT (137.0319977 -3.739559889),ID-ZGP,medium_airport,Bilogai-Sugapa Airport,-3.739559889,137.0319977,7348,Asia,ID,ID-PA,Sugapa-Papua Island,yes,WABV,UGU,,154
POINT (119.5540009 -5.061629772),WAAA,large_airport,Hasanuddin International Airport,-5.061629772,119.5540009,47,Asia,ID,ID-SN,Ujung Pandang-Celebes Island,yes,WAAA,UPG,Restrictions,155
POINT (136.1080017 -1.190019965),WABB,medium_airport,Frans Kaisiepo Airport,-1.190019965,136.1080017,46,Asia,ID,ID-PA,Biak-Supiori Island,yes,WABB,BIK,,156
POINT (135.4960022 -3.368180037),WABI,medium_airport,Nabire Airport,-3.368180037,135.4960022,20,Asia,ID,ID-PA,Nabire-Papua Island,yes,WABI,NBX,,157
POINT (136.8869934 -4.528279781),WABP,medium_airport,Moses Kilangin Airport,-4.528279781,136.8869934,103,Asia,ID,ID-PA,Timika-Papua Island,yes,WABP,TIM,,158
POINT (115.1669998 -8.748169899),WADD,large_airport,Ngurah Rai (Bali) International Airport,-8.748169899,115.1669998,14,Asia,ID,ID-BA,Denpasar-Bali Island,yes,WADD,DPS,Restrictions,159
POINT (140.5160065 -2.576950073),WAJJ,medium_airport,Sentani Airport,-2.576950073,140.5160065,289,Asia,ID,ID-PA,Jayapura-Papua Island,yes,WAJJ,DJJ,,160
POINT (138.9570007 -4.102509975),WAJW,medium_airport,Wamena Airport,-4.102509975,138.9570007,5085,Asia,ID,ID-PA,Wamena-Papua Island,yes,WAJW,WMX,,161
POINT (140.4179993 -8.520290375),WAKK,medium_airport,Mopah Airport,-8.520290375,140.4179993,10,Asia,ID,ID-PA,Merauke-Papua Island,yes,WAKK,MKQ,,162
POINT (117.569444 3.326667),WALR,medium_airport,Juwata Airport,3.326667,117.569444,23,Asia,ID,ID-KU,Tarakan Island,yes,WAQQ,TRK,,163
POINT (117.1569977 -0.484530985),WALS,medium_airport,Temindung Airport,-0.484530985,117.1569977,33,Asia,ID,ID-KI,Samarinda,yes,WALS,SRI,,164
POINT (125.5279999 3.683209896),WAMH,medium_airport,Naha Airport,3.683209896,125.5279999,16,Asia,ID,ID-SA,Tahuna-Sangihe Island,yes,WAMH,NAH,,165
POINT (119.9100037 -0.918542027),WAML,medium_airport,Mutiara Airport,-0.918542027,119.9100037,284,Asia,ID,ID-ST,Palu-Celebes Island,yes,WAML,PLW,,166
POINT (124.9260025 1.54926002),WAMM,medium_airport,Sam Ratulangi Airport,1.54926002,124.9260025,264,Asia,ID,ID-SA,Manado-Celebes Island,yes,WAMM,MDC,,167
POINT (34.88669968 32.01139832),LLBG,large_airport,Ben Gurion International Airport,32.01139832,34.88669968,135,Asia,IL,IL-M,Tel Aviv,yes,LLBG,TLV,Restrictions,168
POINT (34.96009827 29.56130028),LLET,medium_airport,Eilat Airport,29.56130028,34.96009827,42,Asia,IL,IL-D,Eilat,yes,LLET,ETH,,169
POINT (35.04309845 32.80939865),LLHA,medium_airport,Haifa International Airport,32.80939865,35.04309845,28,Asia,IL,IL-HA,Haifa,yes,LLHA,HFA,Restrictions,170
POINT (35.57189941 32.98099899),LLIB,medium_airport,Ben Ya'akov Airport,32.98099899,35.57189941,922,Asia,IL,IL-Z,Rosh Pina,yes,LLIB,RPN,,171
POINT (34.93579865 29.94029999),LLOV,large_airport,Ovda International Airport,29.94029999,34.93579865,1492,Asia,IL,IL-D,Eilat,yes,LLOV,VDA,Restrictions,172
POINT (34.78219986 32.11470032),LLSD,medium_airport,Sde Dov Airport,32.11470032,34.78219986,43,Asia,IL,IL-TA,Tel Aviv,yes,LLSD,SDV,,173
POINT (77.54650116 34.13589859),VILH,medium_airport,Leh Kushok Bakula Rimpochee Airport,34.13589859,77.54650116,10682,Asia,IN,IN-JK,Leh,yes,VILH,IXL,Restrictions,174
POINT (87.243 23.6225),VEDG,medium_airport,Kazi Nazrul Islam Airport,23.6225,87.243,300,Asia,IN,IN-WB,Durgapur,yes,VEDG,RDP,Restrictions,175
POINT (72.63469696 23.07719994),VAAH,medium_airport,Sardar Vallabhbhai Patel International Airport,23.07719994,72.63469696,189,Asia,IN,IN-GJ,Ahmedabad,yes,VAAH,AMD,Restrictions,176
POINT (75.39810181 19.86269951),VAAU,medium_airport,Aurangabad Airport,19.86269951,75.39810181,1911,Asia,IN,IN-MM,Aurangabad,yes,VAAU,IXU,Restrictions,177
POINT (72.86789703 19.08869934),VABB,large_airport,Chhatrapati Shivaji International Airport,19.08869934,72.86789703,39,Asia,IN,IN-MM,Mumbai,yes,VABB,BOM,Restrictions,178
POINT (69.67019653 23.28779984),VABJ,medium_airport,Bhuj Airport,23.28779984,69.67019653,268,Asia,IN,IN-GJ,Bhuj,yes,VABJ,BHJ,Restrictions,179
POINT (74.61830139 15.85929966),VABM,medium_airport,Belgaum Airport,15.85929966,74.61830139,2487,Asia,IN,IN-KA,Belgaum,yes,VOBM,IXG,Restrictions,180
POINT (73.2263031 22.33620071),VABO,medium_airport,Vadodara Airport,22.33620071,73.2263031,129,Asia,IN,IN-GJ,Vadodara,yes,VABO,BDQ,Restrictions,181
POINT (77.33740234 23.28750038),VABP,medium_airport,Raja Bhoj International Airport,23.28750038,77.33740234,1711,Asia,IN,IN-MP,Bhopal,yes,VABP,BHO,Restrictions,182
POINT (72.18520355 21.75219917),VABV,medium_airport,Bhavnagar Airport,21.75219917,72.18520355,44,Asia,IN,IN-GJ,Bhavnagar,yes,VABV,BHU,Restrictions,183
POINT (73.83139801 15.38080025),VAGO,large_airport,Dabolim Airport,15.38080025,73.83139801,150,Asia,IN,IN-GA,Vasco da Gama,yes,VOGO,GOI,Restrictions,184
POINT (75.0848999 15.36170006),VAHB,medium_airport,Hubli Airport,15.36170006,75.0848999,2171,Asia,IN,IN-KA,Hubli,yes,VOHB,HBX,Restrictions,185
POINT (75.80110168 22.72179985),VAID,medium_airport,Devi Ahilyabai Holkar Airport,22.72179985,75.80110168,1850,Asia,IN,IN-MP,Indore,yes,VAID,IDR,Restrictions,186
POINT (80.05200195 23.17779922),VAJB,medium_airport,Jabalpur Airport,23.17779922,80.05200195,1624,Asia,IN,IN-MP,,yes,VAJB,JLR,Restrictions,187
POINT (70.01260376 22.46549988),VAJM,medium_airport,Jamnagar Airport,22.46549988,70.01260376,69,Asia,IN,IN-GJ,Jamnagar,yes,VAJM,JGA,Restrictions,188
POINT (79.91860199 24.81719971),VAKJ,medium_airport,Khajuraho Airport,24.81719971,79.91860199,728,Asia,IN,IN-MP,Khajuraho,yes,VAKJ,HJR,Restrictions,189
POINT (74.28939819 16.66469955),VAKP,medium_airport,Kolhapur Airport,16.66469955,74.28939819,1996,Asia,IN,IN-MM,,yes,VAKP,KLH,Restrictions,190
POINT (77.3167038 19.18330002),VAND,medium_airport,Nanded Airport,19.18330002,77.3167038,1250,Asia,IN,IN-MM,Nanded,yes,VAND,NDC,Restrictions,191
POINT (79.04720306 21.09219933),VANP,medium_airport,Dr. Babasaheb Ambedkar International Airport,21.09219933,79.04720306,1033,Asia,IN,IN-MM,Naqpur,yes,VANP,NAG,Restrictions,192
POINT (73.91970062 18.58209991),VAPO,medium_airport,Pune Airport,18.58209991,73.91970062,1942,Asia,IN,IN-MM,Pune,yes,VAPO,PNQ,Restrictions,193
POINT (69.65720367 21.64870071),VAPR,medium_airport,Porbandar Airport,21.64870071,69.65720367,23,Asia,IN,IN-GJ,Porbandar,yes,VAPR,PBD,Restrictions,194
POINT (70.77950287 22.30920029),VARK,medium_airport,Rajkot Airport,22.30920029,70.77950287,441,Asia,IN,IN-GJ,Rajkot,yes,VARK,RAJ,Restrictions,195
POINT (72.7417984 21.1140995),VASU,medium_airport,Surat Airport,21.1140995,72.7417984,16,Asia,IN,IN-GJ,,yes,VASU,STV,Restrictions,196
POINT (73.89610291 24.61770058),VAUD,medium_airport,Maharana Pratap Airport,24.61770058,73.89610291,1684,Asia,IN,IN-RJ,Udaipur,yes,VAUD,UDR,Restrictions,197
POINT (91.24040222 23.88699913),VEAT,medium_airport,Agartala Airport,23.88699913,91.24040222,46,Asia,IN,IN-TR,Agartala,yes,VEAT,IXA,Restrictions,198
POINT (88.32859802 26.68120003),VEBD,medium_airport,Bagdogra Airport,26.68120003,88.32859802,412,Asia,IN,IN-WB,Siliguri,yes,VEBD,IXB,Restrictions,199
POINT (91.97869873 25.70359993),VEBI,medium_airport,Shillong Airport,25.70359993,91.97869873,2910,Asia,IN,IN-ML,Shillong,yes,VEBI,SHL,Restrictions,200
POINT (123.014999 10.7764),RPVB,medium_airport,Bacolod-Silay City International Airport,10.7764,123.014999,82,Asia,PH,PH-NEC,Bacolod City,yes,RPVB,BCD,Restrictions,201
POINT (143.404007 44.30390167),RJEB,medium_airport,Monbetsu Airport,44.30390167,143.404007,80,Asia,JP,JP-01,Monbetsu,yes,RJEB,MBE,,202
POINT (142.4470062 43.67079926),RJEC,medium_airport,Asahikawa Airport,43.67079926,142.4470062,721,Asia,JP,JP-01,Asahikawa / Hokkaid?,yes,RJEC,AKJ,,203
POINT (139.4329987 42.07170105),RJEO,medium_airport,Okushiri Airport,42.07170105,139.4329987,161,Asia,JP,JP-01,Okushiri Island,yes,RJEO,OIR,,204
POINT (141.1860046 45.24200058),RJER,medium_airport,Rishiri Airport,45.24200058,141.1860046,112,Asia,JP,JP-01,Rishiri,yes,RJER,RIS,,205
POINT (128.8329926 32.66630173),RJFE,medium_airport,Fukue Airport,32.66630173,128.8329926,273,Asia,JP,JP-42,Goto,yes,RJFE,FUJ,,206
POINT (130.451004 33.58589935),RJFF,large_airport,Fukuoka Airport,33.58589935,130.451004,32,Asia,JP,JP-40,Fukuoka,yes,RJFF,FUK,,207
POINT (130.9909973 30.60510063),RJFG,medium_airport,New Tanegashima Airport,30.60510063,130.9909973,768,Asia,JP,JP-46,Tanegashima,yes,RJFG,TNE,,208
POINT (123.3000031 9.333709717),RPVD,medium_airport,Sibulan Airport,9.333709717,123.3000031,15,Asia,PH,PH-NER,Dumaguete City,yes,RPVD,DGT,,209
POINT (130.7189941 31.80340004),RJFK,large_airport,Kagoshima Airport,31.80340004,130.7189941,906,Asia,JP,JP-46,Kagoshima,yes,RJFK,KOJ,,210
POINT (121.954002 11.9245),RPVE,medium_airport,Godofredo P. Ramos Airport,11.9245,121.954002,7,Asia,PH,PH-AKL,Malay,yes,RPVE,MPH,,211
POINT (131.4490051 31.87719917),RJFM,medium_airport,Miyazaki Airport,31.87719917,131.4490051,20,Asia,JP,JP-45,Miyazaki,yes,RJFM,KMI,,212
POINT (124.6360016 12.5024004),RPVF,medium_airport,Catarman National Airport,12.5024004,124.6360016,6,Asia,PH,PH-NSA,Catarman,yes,RPVF,CRM,,213
POINT (131.7369995 33.47940063),RJFO,medium_airport,Oita Airport,33.47940063,131.7369995,19,Asia,JP,JP-44,Oita,yes,RJFO,OIT,,214
POINT (122.493358 10.833017),RPVI,medium_airport,Iloilo International Airport,10.833017,122.493358,27,Asia,PH,PH-ILI,Iloilo City,yes,RPVI,ILO,Restrictions,215
POINT (131.0350037 33.84590149),RJFR,medium_airport,Kitaky?sh? Airport,33.84590149,131.0350037,21,Asia,JP,JP-40,Kitaky?sh?,yes,RJFR,KKJ,,216
POINT (123.6289978 12.36940002),RPVJ,medium_airport,Moises R. Espinosa Airport,12.36940002,123.6289978,26,Asia,PH,PH-MAS,Masbate,yes,RPVJ,MBT,,217
POINT (130.302002 33.14970016),RJFS,medium_airport,Saga Airport,33.14970016,130.302002,6,Asia,JP,JP-41,Saga,yes,RJFS,HSG,,218
POINT (122.3759995 11.67940044),RPVK,medium_airport,Kalibo International Airport,11.67940044,122.3759995,14,Asia,PH,PH-AKL,Kalibo,yes,RPVK,KLO,Restrictions,219
POINT (130.8549957 32.83729935),RJFT,medium_airport,Kumamoto Airport,32.83729935,130.8549957,642,Asia,JP,JP-43,Kumamoto,yes,RJFT,KMJ,,220
POINT (123.9789963 10.30749989),RPVM,large_airport,Mactan Cebu International Airport,10.30749989,123.9789963,31,Asia,PH,PH-CEB,Lapu-Lapu City,yes,RPVM,CEB,Restrictions,221
POINT (129.9140015 32.91690063),RJFU,medium_airport,Nagasaki Airport,32.91690063,129.9140015,15,Asia,JP,JP-42,Nagasaki,yes,RJFU,NGS,,222
POINT (118.7590027 9.742119789),RPVP,medium_airport,Puerto Princesa Airport,9.742119789,118.7590027,71,Asia,PH,PH-PLW,Puerto Princesa City,yes,RPVP,PPS,,223
POINT (136.8049927 34.85839844),RJGG,large_airport,Chubu Centrair International Airport,34.85839844,136.8049927,15,Asia,JP,JP-23,Tokoname,yes,RJGG,NGO,Restrictions,224
POINT (122.7519989 11.59770012),RPVR,medium_airport,Roxas Airport,11.59770012,122.7519989,10,Asia,PH,PH-CAP,Roxas City,yes,RPVR,RXS,,225
POINT (129.7129974 28.43059921),RJKA,medium_airport,Amami Airport,28.43059921,129.7129974,27,Asia,JP,JP-46,Amami,yes,RJKA,ASJ,,226
POINT (123.8529968 9.664079666),RPVT,medium_airport,Tagbilaran Airport,9.664079666,123.8529968,38,Asia,PH,PH-BOH,Tagbilaran City,yes,RPVT,TAG,,227
POINT (128.701004 27.42550087),RJKB,medium_airport,Okierabu Airport,27.42550087,128.701004,101,Asia,JP,JP-46,Okinoerabujima,yes,RJKB,OKE,,228
POINT (122.0849991 12.31099987),RPVU,medium_airport,Tugdan Airport,12.31099987,122.0849991,10,Asia,PH,PH-ROM,Tablas Island,yes,RPVU,TBH,,229
POINT (129.9279938 28.32130051),RJKI,medium_airport,Kikai Airport,28.32130051,129.9279938,21,Asia,JP,JP-46,Kikai,yes,RJKI,KKX,,230
POINT (124.7070007 9.253520012),RPMH,medium_airport,Camiguin Airport,9.253520012,124.7070007,53,Asia,PH,PH-CAM,,yes,RPMH,CGM,,231
POINT (120.6200027 16.37509918),RPUB,medium_airport,Loakan Airport,16.37509918,120.6200027,4251,Asia,PH,PH-BEN,Baguio City,yes,RPUB,BAG,,232
POINT (121.5 15.72980022),RPUR,medium_airport,Dr.Juan C. Angara Airport,15.72980022,121.5,108,Asia,PH,PH-AUR,Baler,yes,RPUR,BQA,,233
POINT (124.5449982 12.07269955),RPVC,medium_airport,Calbayog Airport,12.07269955,124.5449982,12,Asia,PH,PH-WSA,Calbayog City,yes,RPVC,CYP,,234
POINT (120.0999985 12.12150002),RPVV,medium_airport,Francisco B. Reyes Airport,12.12150002,120.0999985,148,Asia,PH,PH-PLW,Coron,yes,RPVV,USU,,235
POINT (124.456496 8.612203),PH-0001,large_airport,Laguindingan Airport,8.612203,124.456496,190,Asia,PH,PH-MSR,Cagayan de Oro City,yes,RPMY,CGY,,236
POINT (120.2710037 14.79440022),RPLB,medium_airport,Subic Bay International Airport,14.79440022,120.2710037,64,Asia,PH,PH-ZMB,Olongapo City,yes,RPLB,SFS,Restrictions,237
POINT (120.5599976 15.18599987),RPLC,large_airport,Clark International Airport,15.18599987,120.5599976,484,Asia,PH,PH-PAM,Angeles City,yes,RPLC,CRK,Restrictions,238
POINT (120.5319977 18.17810059),RPLI,medium_airport,Laoag International Airport,18.17810059,120.5319977,25,Asia,PH,PH-ILN,Laoag City,yes,RPLI,LAO,Restrictions,239
POINT (121.019997 14.5086),RPLL,large_airport,Ninoy Aquino International Airport,14.5086,121.019997,75,Asia,PH,PH-U-A,Manila,yes,RPLL,MNL,Restrictions,240
POINT (123.735 13.1575),RPLP,medium_airport,Legazpi City International Airport,13.1575,123.735,66,Asia,PH,PH-ALB,Legazpi City,yes,RPLP,LGP,Restrictions,241
POINT (124.2099991 7.165239811),RPMC,medium_airport,Awang Airport,7.165239811,124.2099991,189,Asia,PH,PH-MAG,Cotabato City,yes,RPMC,CBO,,242
POINT (125.6460037 7.125520229),RPMD,large_airport,Francisco Bangoy International Airport,7.125520229,125.6460037,96,Asia,PH,PH-DAV,Davao City,yes,RPMD,DVO,Restrictions,243
POINT (125.4788 8.9515),RPME,medium_airport,Bancasi Airport,8.9515,125.4788,141,Asia,PH,PH-AGN,Butuan City,yes,RPME,BXU,,244
POINT (123.3418751 8.601983499),RPMG,medium_airport,Dipolog Airport,8.601983499,123.3418751,12,Asia,PH,PH-ZAN,Dipolog City,yes,RPMG,DPL,,245
POINT (121.0110016 6.05366993),RPMJ,medium_airport,Jolo Airport,6.05366993,121.0110016,118,Asia,PH,PH-SLU,,yes,RPMJ,JOL,,246
POINT (119.7429962 5.046989918),RPMN,medium_airport,Sanga Sanga Airport,5.046989918,119.7429962,15,Asia,PH,PH-TAW,,yes,RPMN,SGS,,247
POINT (71.71800232 29.34810066),OPBW,medium_airport,Bahawalpur Airport,29.34810066,71.71800232,392,Asia,PK,PK-PB,Bahawalpur,yes,OPBW,BHV,Restrictions,248
POINT (71.80059814 35.88660049),OPCH,medium_airport,Chitral Airport,35.88660049,71.80059814,4920,Asia,PK,PK-NW,Chitral,yes,OPCH,CJL,Restrictions,249
POINT (70.48590088 29.96100044),OPDG,medium_airport,Dera Ghazi Khan Airport,29.96100044,70.48590088,492,Asia,PK,PK-PB,Dera Ghazi Khan,yes,OPDG,DEA,Restrictions,250
POINT (70.89659882 31.90940094),OPDI,medium_airport,Dera Ismael Khan Airport,31.90940094,70.89659882,594,Asia,PK,PK-NW,Dera Ismael Khan,yes,OPDI,DSK,Restrictions,251
POINT (72.99479675 31.36499977),OPFA,medium_airport,Faisalabad International Airport,31.36499977,72.99479675,591,Asia,PK,PK-PB,Faisalabad,yes,OPFA,LYP,Restrictions,252
POINT (62.32949829 25.23329926),OPGD,medium_airport,Gwadar International Airport,25.23329926,62.32949829,36,Asia,PK,PK-BA,Gwadar,yes,OPGD,GWD,Restrictions,253
POINT (74.33360291 35.91880035),OPGT,medium_airport,Gilgit Airport,35.91880035,74.33360291,4796,Asia,PK,PK-NA,Gilgit,yes,OPGT,GIL,Restrictions,254
POINT (67.160797 24.9065),OPKC,medium_airport,Jinnah International Airport,24.9065,67.160797,100,Asia,PK,PK-SD,Karachi,yes,OPKC,KHI,Restrictions,255
POINT (74.4036026 31.52160072),OPLA,medium_airport,Alama Iqbal International Airport,31.52160072,74.4036026,712,Asia,PK,PK-PB,Lahore,yes,OPLA,LHE,Restrictions,256
POINT (73.50859833 34.3390007),OPMF,medium_airport,Muzaffarabad Airport,34.3390007,73.50859833,2691,Asia,PK,PK-JK,Muzaffarabad,yes,OPMF,MFG,Restrictions,257
POINT (68.14309692 27.33519936),OPMJ,medium_airport,Moenjodaro Airport,27.33519936,68.14309692,154,Asia,PK,PK-SD,Moenjodaro,yes,OPMJ,MJD,Restrictions,258
POINT (71.4190979 30.20319939),OPMT,medium_airport,Multan International Airport,30.20319939,71.4190979,403,Asia,PK,PK-PB,Multan,yes,OPMT,MUX,Restrictions,259
POINT (68.390099 26.2194),OPNH,medium_airport,Shaheed Benazirabad Airport,26.2194,68.390099,95,Asia,PK,PK-SD,Nawabashah,yes,OPNH,WNS,Restrictions,260
POINT (64.13249969 26.9545002),OPPG,medium_airport,Panjgur Airport,26.9545002,64.13249969,3289,Asia,PK,PK-BA,Panjgur,yes,OPPG,PJG,Restrictions,261
POINT (63.3451004 25.29050064),OPPI,medium_airport,Pasni Airport,25.29050064,63.3451004,33,Asia,PK,PK-BA,Pasni,yes,OPPI,PSI,Restrictions,262
POINT (71.51460266 33.9939003),OPPS,medium_airport,Peshawar International Airport,33.9939003,71.51460266,1158,Asia,PK,PK-NW,Peshawar,yes,OPPS,PEW,Restrictions,263
POINT (66.93779755 30.25139999),OPQT,medium_airport,Quetta International Airport,30.25139999,66.93779755,5267,Asia,PK,PK-BA,Quetta,yes,OPQT,UET,Restrictions,264
POINT (70.27960205 28.38389969),OPRK,medium_airport,Shaikh Zaid Airport,28.38389969,70.27960205,271,Asia,PK,PK-PB,Rahim Yar Khan,yes,OPRK,RYK,Restrictions,265
POINT (73.09919739 33.61669922),OPRN,large_airport,Benazir Bhutto International Airport,33.61669922,73.09919739,1668,Asia,PK,PK-IS,Islamabad,yes,OPRN,ISB,Restrictions,266
POINT (73.79810333 33.84970093),OPRT,medium_airport,Rawalakot Airport,33.84970093,73.79810333,5479,Asia,PK,PK-JK,Rawalakot,yes,OPRT,RAZ,Restrictions,267
POINT (75.53600311 35.33549881),OPSD,medium_airport,Skardu Airport,35.33549881,75.53600311,7316,Asia,PK,PK-NA,Skardu,yes,OPSD,KDU,Restrictions,268
POINT (68.79170227 27.72200012),OPSK,medium_airport,Sukkur Airport,27.72200012,68.79170227,196,Asia,PK,PK-SD,Mirpur Khas,yes,OPSK,SKZ,Restrictions,269
POINT (72.35279846 34.81359863),OPSS,medium_airport,Saidu Sharif Airport,34.81359863,72.35279846,3183,Asia,PK,PK-NW,Saidu Sharif,yes,OPSS,SDT,Restrictions,270
POINT (63.03020096 25.9864006),OPTU,medium_airport,Turbat International Airport,25.9864006,63.03020096,498,Asia,PK,PK-BA,Turbat,yes,OPTU,TUK,Restrictions,271
POINT (69.46360016 31.35840034),OPZB,medium_airport,Zhob Airport,31.35840034,69.46360016,4728,Asia,PK,PK-BA,Fort Sandeman,yes,OPZB,PZH,Restrictions,272
POINT (74.3638916 32.53555679),OPST,large_airport,Sialkot Airport,32.53555679,74.3638916,837,Asia,PK,PK-PB,Sialkot,yes,OPST,SKT,Restrictions,273
POINT (67.71720123 26.47310066),OPSN,medium_airport,Sehwan Sharif Airport,26.47310066,67.71720123,121,Asia,PK,PK-SD,Sehwan Sharif,yes,OPSN,SYW,Restrictions,274
POINT (51.608056 25.273056),QA-0001,large_airport,Hamad International Airport,25.273056,51.608056,13,Asia,QA,QA-DA,Doha,yes,OTHH,DOH,Restrictions,275
POINT (128.9029999 71.6977005),UEST,medium_airport,Tiksi Airport,71.6977005,128.9029999,26,Asia,RU,RU-SA,Tiksi,yes,UEST,IKS,,276
POINT (127.4120026 50.42539978),UHBB,medium_airport,Ignatyevo Airport,50.42539978,127.4120026,638,Asia,RU,RU-AMU,Blagoveschensk,yes,UHBB,BQS,,277
POINT (135.1880035 48.52799988),UHHH,large_airport,Khabarovsk-Novy Airport,48.52799988,135.1880035,244,Asia,RU,RU-KHA,Khabarovsk,yes,UHHH,KHV,,278
POINT (63.60191345 61.32662201),USHS,medium_airport,Sovetskiy Airport,61.32662201,63.60191345,351,Asia,RU,RU-KHM,Sovetskiy,yes,USHS,OVS,,279
POINT (177.7409973 64.73490143),UHMA,medium_airport,Ugolny Airport,64.73490143,177.7409973,194,Asia,RU,RU-CHU,Anadyr,yes,UHMA,DYR,,280
POINT (64.8266983 60.10329819),USHU,medium_airport,Uray Airport,60.10329819,64.8266983,190,Asia,RU,RU-KHM,Uray,yes,USHU,URJ,,281
POINT (150.7200012 59.9109993),UHMM,medium_airport,Sokol Airport,59.9109993,150.7200012,574,Asia,RU,RU-MAG,Magadan,yes,UHMM,GDX,,282
POINT (66.69860077 63.68690109),USHY,medium_airport,Beloyarskiy Airport,63.68690109,66.69860077,82,Asia,RU,RU-KHM,,yes,,EYK,,283
POINT (158.4539948 53.16790009),UHPP,medium_airport,Yelizovo Airport,53.16790009,158.4539948,131,Asia,RU,RU-KAM,Petropavlovsk-Kamchatsky,yes,UHPP,PKC,,284
POINT (142.7180023 46.88869858),UHSS,medium_airport,Yuzhno-Sakhalinsk Airport,46.88869858,142.7180023,59,Asia,RU,RU-SAK,Yuzhno-Sakhalinsk,yes,UHSS,UUS,,285
POINT (132.147995 43.39899826),UHWW,medium_airport,Vladivostok International Airport,43.39899826,132.147995,46,Asia,RU,RU-PRI,Vladivostok,yes,UHWW,VVO,Restrictions,286
POINT (72.69889832 65.48090363),USMM,medium_airport,Nadym Airport,65.48090363,72.69889832,49,Asia,RU,RU-YAN,Nadym,yes,USMM,NYM,,287
POINT (76.52030182 66.06939697),USMU,medium_airport,Novy Urengoy Airport,66.06939697,76.52030182,210,Asia,RU,RU-YAN,Novy Urengoy,yes,USMU,NUX,,288
POINT (72.65000153 61.10829926),USRN,medium_airport,Nefteyugansk Airport,61.10829926,72.65000153,115,Asia,RU,RU-KHM,Nefteyugansk,yes,USRN,NFG,,289
POINT (75.26999664 63.18330002),USRO,medium_airport,Noyabrsk Airport,63.18330002,75.26999664,446,Asia,RU,RU-YAN,Noyabrsk,yes,USRO,NOJ,,290
POINT (101.697998 56.37060165),UIBB,medium_airport,Bratsk Airport,56.37060165,101.697998,1610,Asia,RU,RU-IRK,Bratsk,yes,UIBB,BTK,,291
POINT (65.41560364 55.47529984),USUU,medium_airport,Kurgan Airport,55.47529984,65.41560364,240,Asia,RU,RU-KGN,Kurgan,yes,USUU,KRO,,292
POINT (104.3889999 52.26800156),UIII,medium_airport,Irkutsk Airport,52.26800156,104.3889999,1675,Asia,RU,RU-IRK,Irkutsk,yes,UIII,IKT,Restrictions,293
POINT (107.4380035 51.80780029),UIUU,medium_airport,Ulan-Ude Airport (Mukhino),51.80780029,107.4380035,1690,Asia,RU,RU-BU,Ulan Ude,yes,UIUU,UUD,,294
POINT (75.09999847 67.98666382),RU-0050,medium_airport,Yamburg Airport,67.98666382,75.09999847,108,Asia,RU,RU-YAN,Yamburg,yes,,,,295
POINT (129.7709961 62.09329987),UEEE,medium_airport,Yakutsk Airport,62.09329987,129.7709961,325,Asia,RU,RU-SA,Yakutsk,yes,UEEE,YKS,,296
POINT (124.9140015 56.91389847),UELL,medium_airport,Chulman Airport,56.91389847,124.9140015,2812,Asia,RU,RU-SA,Neryungri,yes,UELL,NER,,297
POINT (63.99309921 67.48860168),UUYW,medium_airport,Vorkuta Airport,67.48860168,63.99309921,604,Asia,RU,RU-KO,Vorkuta,yes,UUYW,VKT,,298
POINT (123.3610001 66.79650116),UWKV,medium_airport,Zhigansk Airport,66.79650116,123.3610001,292,Asia,RU,RU-SA,Zhigansk,yes,UEVV,ZIX,,299
POINT (91.38500214 53.74000168),UNAA,medium_airport,Abakan Airport,53.74000168,91.38500214,831,Asia,RU,RU-KK,Abakan,yes,UNAA,ABA,,300
POINT (83.53849792 53.36380005),UNBB,medium_airport,Barnaul Airport,53.36380005,83.53849792,837,Asia,RU,RU-ALT,Barnaul,yes,UNBB,BAX,,301
POINT (86.10720062 55.27009964),UNEE,medium_airport,Kemerovo Airport,55.27009964,86.10720062,863,Asia,RU,RU-KEM,Kemerovo,yes,UNEE,KEJ,,302
POINT (92.49330139 56.17290115),UNKL,large_airport,Yemelyanovo Airport,56.17290115,92.49330139,942,Asia,RU,RU-KYA,Krasnoyarsk,yes,UNKL,KJA,,303
POINT (82.65070343 55.01259995),UNNT,large_airport,Tolmachevo Airport,55.01259995,82.65070343,365,Asia,RU,RU-NVS,Novosibirsk,yes,UNNT,OVB,,304
POINT (73.3105011 54.96699905),UNOO,medium_airport,Omsk Central Airport,54.96699905,73.3105011,311,Asia,RU,RU-OMS,Omsk,yes,UNOO,OMS,,305
POINT (102.4909973 71.97810364),UOHH,medium_airport,Khatanga Airport,71.97810364,102.4909973,95,Asia,RU,RU-KYA,Khatanga,yes,UOHH,HTG,,306
POINT (87.3321991 69.31109619),UOOO,medium_airport,Norilsk-Alykel Airport,69.31109619,87.3321991,574,Asia,RU,RU-KYA,Norilsk,yes,UOOO,NSK,,307
POINT (66.61100006 66.59079742),USDD,medium_airport,Salekhard Airport,66.59079742,66.61100006,218,Asia,RU,RU-YAN,Salekhard,yes,USDD,SLY,,308
POINT (69.08609772 61.0284996),USHH,medium_airport,Khanty Mansiysk Airport,61.0284996,69.08609772,76,Asia,RU,RU-KHM,Khanty-Mansiysk,yes,USHH,HMA,,309
POINT (76.4835968 60.94929886),USNN,medium_airport,Nizhnevartovsk Airport,60.94929886,76.4835968,177,Asia,RU,RU-KHM,Nizhnevartovsk,yes,USNN,NJC,,310
POINT (74.53379822 62.19039917),USRK,medium_airport,Kogalym International Airport,62.19039917,74.53379822,220,Asia,RU,RU-KHM,Kogalym,yes,USRK,KGP,Restrictions,311
POINT (73.40180206 61.34370041),USRR,medium_airport,Surgut Airport,61.34370041,73.40180206,200,Asia,RU,RU-KHM,Surgut,yes,USRR,SGC,,312
POINT (60.80270004 56.74309921),USSS,large_airport,Koltsovo Airport,56.74309921,60.80270004,764,Asia,RU,RU-SVE,Yekaterinburg,yes,USSS,SVX,,313
POINT (65.32430267 57.1896019),USTR,medium_airport,Roshchino International Airport,57.1896019,65.32430267,378,Asia,RU,RU-TYU,Tyumen,yes,USTR,TJM,Restrictions,314
POINT (85.20829773 56.38029861),UNTT,medium_airport,Bogashevo Airport,56.38029861,85.20829773,597,Asia,RU,RU-TOM,Tomsk,yes,UNTT,TOF,,315
POINT (120.4710007 60.39749908),UEMO,medium_airport,Olyokminsk Airport,60.39749908,120.4710007,656,Asia,RU,RU-SA,Olyokminsk,yes,UEMO,,,316
POINT (121.6933365 63.75666809),UENW,medium_airport,Vilyuisk Airport,63.75666809,121.6933365,361,Asia,RU,RU-SA,Vilyuisk,yes,UENW,VYI,,317
POINT (114.8259964 60.72060013),UERL,medium_airport,Lensk Airport,60.72060013,114.8259964,801,Asia,RU,RU-SA,Lensk,yes,UERL,ULK,,318
POINT (85.81780243 20.24440002),VEBS,medium_airport,Biju Patnaik Airport,20.24440002,85.81780243,138,Asia,IN,IN-OR,Bhubaneswar,yes,VEBS,BBI,Restrictions,319
POINT (33.78099823 -13.7894001),FWKI,medium_airport,Lilongwe International Airport,-13.7894001,33.78099823,4035,Africa,MW,MW-LI,Lilongwe,yes,FWKI,LLW,,320
POINT (128.8809967 27.83639908),RJKN,medium_airport,Tokunoshima Airport,27.83639908,128.8809967,17,Asia,JP,JP-46,Tokunoshima,yes,RJKN,TKN,,321
POINT (88.44670105 22.65469933),VECC,large_airport,Netaji Subhash Chandra Bose International Airport,22.65469933,88.44670105,16,Asia,IN,IN-WB,Kolkata,yes,VECC,CCU,Restrictions,322
POINT (136.923996 35.25500107),RJNA,medium_airport,Nagoya Airport,35.25500107,136.923996,52,Asia,JP,JP-23,Nagoya,yes,RJNA,NKM,,323
POINT (83.4496994 26.73970032),VEGK,medium_airport,Gorakhpur Airport,26.73970032,83.4496994,259,Asia,IN,IN-UP,Gorakhpur,yes,VEGK,GOP,Restrictions,324
POINT (136.4069977 36.39459991),RJNK,medium_airport,Komatsu Airport,36.39459991,136.4069977,36,Asia,JP,JP-17,Kanazawa,yes,RJNK,KMQ,,325
POINT (91.58589935 26.10610008),VEGT,medium_airport,Lokpriya Gopinath Bordoloi International Airport,26.10610008,91.58589935,162,Asia,IN,IN-AS,Guwahati,yes,VEGT,GAU,Restrictions,326
POINT (133.3249969 36.18109894),RJNO,medium_airport,Oki Airport,36.18109894,133.3249969,311,Asia,JP,JP-32,Okinoshima,yes,RJNO,OKI,,327
POINT (34.01179886 -11.44470024),FWUU,medium_airport,Mzuzu Airport,-11.44470024,34.01179886,4115,Africa,MW,MW-MZ,Mzuzu,yes,FWUU,ZZU,,328
POINT (84.95120239 24.74430084),VEGY,medium_airport,Gaya Airport,24.74430084,84.95120239,380,Asia,IN,IN-BR,,yes,VEGY,GAY,Restrictions,329
POINT (137.1880035 36.64830017),RJNT,medium_airport,Toyama Airport,36.64830017,137.1880035,95,Asia,JP,JP-16,Toyama,yes,RJNT,TOY,,330
POINT (35.43830109 -21.85330009),BCW,medium_airport,Benguera Island Airport,-21.85330009,35.43830109,*****,Africa,MZ,MZ-I,Benguera Island,yes,,BCW,,331
POINT (34.9076004 -19.79640007),FQBR,medium_airport,Beira Airport,-19.79640007,34.9076004,33,Africa,MZ,MZ-S,Beira,yes,FQBR,BEW,,332
POINT (33.42900085 -19.15130043),FQCH,medium_airport,Chimoio Airport,-19.15130043,33.42900085,2287,Africa,MZ,MZ-B,Chimoio,yes,FQCH,VPY,,333
POINT (35.40850067 -23.87639999),FQIN,medium_airport,Inhambane Airport,-23.87639999,35.40850067,30,Africa,MZ,MZ-I,Inhambabe,yes,FQIN,INH,,334
POINT (35.2663002 -13.27400017),FQLC,medium_airport,Lichinga Airport,-13.27400017,35.2663002,4505,Africa,MZ,MZ-A,Lichinga,yes,FQLC,VXC,,335
POINT (32.57260132 -25.92079926),FQMA,medium_airport,Maputo Airport,-25.92079926,32.57260132,145,Africa,MZ,MZ-MPM,Maputo,yes,FQMA,MPM,,336
POINT (39.28179932 -15.10560036),FQNP,medium_airport,Nampula Airport,-15.10560036,39.28179932,1444,Africa,MZ,MZ-N,Nampula,yes,FQNP,APL,,337
POINT (40.52401352 -12.99176216),FQPB,medium_airport,Pemba Airport,-12.99176216,40.52401352,331,Africa,MZ,MZ-P,Pemba / Porto Amelia,yes,FQPB,POL,,338
POINT (36.86909866 -17.85549927),FQQL,medium_airport,Quelimane Airport,-17.85549927,36.86909866,36,Africa,MZ,MZ-Q,Quelimane,yes,FQQL,UEL,,339
POINT (33.64020157 -16.10479927),FQTT,medium_airport,Chingozi Airport,-16.10479927,33.64020157,525,Africa,MZ,MZ-T,Tete,yes,FQTT,TET,,340
POINT (35.31330109 -22.01840019),FQVL,medium_airport,Vilankulo Airport,-22.01840019,35.31330109,46,Africa,MZ,MZ-I,Vilanculo,yes,FQVL,VNX,,341
POINT (15.24289989 -26.68740082),FYLZ,medium_airport,Luderitz Airport,-26.68740082,15.24289989,457,Africa,NA,NA-KA,Luderitz,yes,FYLZ,LUD,,342
POINT (15.9526 -17.878201),FYOA,medium_airport,Ondangwa Airport,-17.878201,15.9526,3599,Africa,NA,NA-ON,Ondangwa,yes,FYOA,OND,,343
POINT (16.44669914 -28.58469963),FYOG,medium_airport,Oranjemund Airport,-28.58469963,16.44669914,14,Africa,NA,NA-KA,Oranjemund,yes,FYOG,OMD,,344
POINT (19.71940041 -17.9564991),FYRU,medium_airport,Rundu Airport,-17.9564991,19.71940041,3627,Africa,NA,NA-KE,Rundu,yes,FYRU,NDU,,345
POINT (17.08040047 -22.61219978),FYWE,medium_airport,Eros Airport,-22.61219978,17.08040047,5575,Africa,NA,NA-KH,Windhoek,yes,FYWE,ERS,,346
POINT (17.4709 -22.4799),FYWH,medium_airport,Hosea Kutako International Airport,-22.4799,17.4709,5640,Africa,NA,NA-KH,Windhoek,yes,FYWH,WDH,,347
POINT (2.183609962 13.48149967),DRRN,medium_airport,Diori Hamani International Airport,13.48149967,2.183609962,732,Africa,NE,NE-8,Niamey,yes,DRRN,NIM,,348
POINT (8.000109673 16.9659996),DRZA,medium_airport,Mano Dayak International Airport,16.9659996,8.000109673,1657,Africa,NE,NE-1,Agadez,yes,DRZA,AJY,,349
POINT (8.98375988 13.77900028),DRZR,medium_airport,Zinder Airport,13.77900028,8.98375988,1516,Africa,NE,NE-7,Zinder,yes,DRZR,ZND,,350
POINT (3.321160078 6.577370167),DNMM,large_airport,Murtala Muhammed International Airport,6.577370167,3.321160078,135,Africa,NG,NG-LA,Lagos,yes,DNMM,LOS,screening,351
POINT (6.949590206 5.015490055),DNPO,medium_airport,Port Harcourt International Airport,5.015490055,6.949590206,87,Africa,NG,NG-RI,Port Harcourt,yes,DNPO,PHC,screening,352
POINT (5.207190037 12.91629982),DNSO,medium_airport,Sadiq Abubakar III International Airport,12.91629982,5.207190037,1010,Africa,NG,NG-SO,Sokoto,yes,DNSO,SKO,screening,353
POINT (12.43039989 9.25755024),DNYO,medium_airport,Yola Airport,9.25755024,12.43039989,599,Africa,NG,NG-AD,Yola,yes,DNYO,YOL,,354
POINT (8.093 4.8725),DNAI,large_airport,Akwa Ibom International Airport,4.8725,8.093,170,Africa,NG,NG-AK,Uyo,yes,DNAI,QUO,screening,355
POINT (5.817780018 5.596109867),NG-QRW,medium_airport,Warri Airport,5.596109867,5.817780018,242,Africa,NG,NG-DE,Warri,yes,DNSU,QRW,,356
POINT (10.89638889 10.29833333),NG-0003,medium_airport,Gombe Lawanti International Airport,10.29833333,10.89638889,1590,Africa,NG,NG-GO,Gombe,yes,DNGO,GMO,screening,357
POINT (7.263169765 9.006790161),DNAA,large_airport,Nnamdi Azikiwe International Airport,9.006790161,7.263169765,1123,Africa,NG,NG-FC,Abuja,yes,DNAA,ABV,screening,358
POINT (5.301010132 7.246739864),DNAK,medium_airport,Akure Airport,7.246739864,5.301010132,1100,Africa,NG,NG-ON,Akure,yes,DNAK,AKR,,359
POINT (9.744 10.482833),DNBC,medium_airport,Sir Abubakar Tafawa Balewa International Airport,10.482833,9.744,1965,Africa,NG,NG-BA,Bauchi,yes,DNBC,BCU,screening,360
POINT (5.599500179 6.316979885),DNBE,medium_airport,Benin Airport,6.316979885,5.599500179,258,Africa,NG,NG-ED,Benin,yes,DNBE,BNI,,361
POINT (8.347200394 4.976019859),DNCA,medium_airport,Margaret Ekpo International Airport,4.976019859,8.347200394,210,Africa,NG,NG-CR,Calabar,yes,DNCA,CBQ,screening,362
POINT (7.56196022 6.474269867),DNEN,medium_airport,Akanu Ibiam International Airport,6.474269867,7.56196022,466,Africa,NG,NG-EN,Enegu,yes,DNEN,ENU,screening,363
POINT (3.978329897 7.362460136),DNIB,medium_airport,Ibadan Airport,7.362460136,3.978329897,725,Africa,NG,NG-OY,Ibadan,yes,DNIB,IBA,,364
POINT (4.493919849 8.440210342),DNIL,medium_airport,Ilorin International Airport,8.440210342,4.493919849,1126,Africa,NG,NG-KW,Ilorin,yes,DNIL,ILR,screening,365
POINT (7.206029892 5.427060127),DNIM,medium_airport,Sam Mbakwe International Airport,5.427060127,7.206029892,373,Africa,NG,NG-IM,Owerri,yes,DNIM,QOW,screening,366
POINT (8.869050026 9.639829636),DNJO,medium_airport,Yakubu Gowon Airport,9.639829636,8.869050026,4232,Africa,NG,NG-PL,Jos,yes,DNJO,JOS,,367
POINT (7.320109844 10.6960001),DNKA,medium_airport,Kaduna Airport,10.6960001,7.320109844,2073,Africa,NG,NG-KD,Kaduna,yes,DNKA,KAD,,368
POINT (8.524620056 12.04759979),DNKN,medium_airport,Mallam Aminu International Airport,12.04759979,8.524620056,1562,Africa,NG,NG-KN,Kano,yes,DNKN,KAN,screening,369
POINT (13.08090019 11.85529995),DNMA,medium_airport,Maiduguri International Airport,11.85529995,13.08090019,1099,Africa,NG,NG-BO,Maiduguri,yes,DNMA,MIU,screening,370
POINT (8.61394 7.70388),DNMK,medium_airport,Makurdi Airport,7.70388,8.61394,371,Africa,NG,NG-BE,Makurdi,yes,DNMK,MDI,,371
POINT (55.51029968 -20.88710022),FMEE,medium_airport,Roland Garros Airport,-20.88710022,55.51029968,66,Africa,RE,RE-U-A,St Denis,yes,FMEE,RUN,,372
POINT (55.42499924 -21.32089996),FMEP,medium_airport,Pierrefonds Airport,-21.32089996,55.42499924,59,Africa,RE,RE-U-A,St Pierre,yes,FMEP,ZSE,,373
POINT (30.13949966 -1.968629956),HRYR,medium_airport,Kigali International Airport,-1.968629956,30.13949966,4859,Africa,RW,RW-01,Kigali,yes,HRYR,KGL,,374
POINT (28.90789986 -2.462239981),HRZA,medium_airport,Kamembe Airport,-2.462239981,28.90789986,5192,Africa,RW,RW-04,Kamembe,yes,HRZA,KME,,375
POINT (55.52180099 -4.674339771),FSIA,medium_airport,Seychelles International Airport,-4.674339771,55.52180099,10,Africa,SC,SC-20,Mahe Island,yes,FSIA,SEZ,Restrictions,376
POINT (55.69139862 -4.319290161),FSPP,medium_airport,Praslin Airport,-4.319290161,55.69139862,10,Africa,SC,SC-14,Praslin Island,yes,FSPP,PRI,,377
POINT (30.43009949 19.15390015),HSDN,medium_airport,Dongola Airport,19.15390015,30.43009949,772,Africa,SD,SD-01,Dongola,yes,HSDN,DOG,,378
POINT (25.32460022 13.61489964),HSFS,medium_airport,El Fasher Airport,13.61489964,25.32460022,2393,Africa,SD,SD-02,El Fasher,yes,HSFS,ELF,,379
POINT (36.3288002 15.38749981),HSKA,medium_airport,Kassala Airport,15.38749981,36.3288002,1671,Africa,SD,SD-05,Kassala,yes,HSKA,KSL,,380
POINT (30.23270035 13.15320015),HSOB,medium_airport,El Obeid Airport,13.15320015,30.23270035,1927,Africa,SD,SD-09,Al-Ubayyid,yes,HSOB,EBD,,381
POINT (37.23410034 19.43359947),HSPN,medium_airport,Port Sudan New International Airport,19.43359947,37.23410034,135,Africa,SD,SD-26,Port Sudan,yes,HSPN,PZU,,382
POINT (32.55319977 15.58950043),HSSS,large_airport,Khartoum International Airport,15.58950043,32.55319977,1265,Africa,SD,SD-03,Khartoum,yes,HSSS,KRT,screening,383
POINT (-13.19550037 8.616439819),GFLL,medium_airport,Lungi International Airport,8.616439819,-13.19550037,84,Africa,SL,SL-N,Freetown,yes,GFLL,FNA,,384
POINT (-12.51889992 7.532420158),GFBN,medium_airport,Sherbro International Airport,7.532420158,-12.51889992,14,Africa,SL,SL-S,Bonthe,yes,GFBN,BTE,,385
POINT (-11.76099968 7.944399834),GFBO,medium_airport,Bo Airport,7.944399834,-11.76099968,328,Africa,SL,SL-S,Bo,yes,GFBO,KBS,,386
POINT (-11.17660046 7.891290188),GFKE,medium_airport,Kenema Airport,7.891290188,-11.17660046,485,Africa,SL,SL-E,Kenema,yes,GFKE,KEN,,387
POINT (-11.04539967 8.610469818),GFYE,medium_airport,Yengema Airport,8.610469818,-11.04539967,1300,Africa,SL,SL-E,Yengema,yes,GFYE,WYE,,388
POINT (-16.281799 12.5556),GOGG,medium_airport,Ziguinchor Airport,12.5556,-16.281799,75,Africa,SN,SN-ZG,Ziguinchor,yes,GOGG,ZIG,,389
POINT (-16.748 12.39533),GOGS,medium_airport,Cap Skirring Airport,12.39533,-16.748,52,Africa,SN,SN-ZG,Cap Skirring,yes,GOGS,CSK,,390
POINT (-17.49020004 14.73970032),GOOY,large_airport,Léopold Sédar Senghor International Airport,14.73970032,-17.49020004,85,Africa,SN,SN-DK,Dakar,yes,GOOY,DKR,,391
POINT (-16.46319962 16.05080032),GOSS,medium_airport,Saint Louis Airport,16.05080032,-16.46319962,9,Africa,SN,SN-SL,Saint Louis,yes,GOSS,XLS,,392
POINT (-13.65310001 13.73680019),GOTT,medium_airport,Tambacounda Airport,13.73680019,-13.65310001,161,Africa,SN,SN-TC,Tambacounda,yes,GOTT,TUD,,393
POINT (-13.32279968 15.59360027),GOSM,medium_airport,Ouro Sogui Airport,15.59360027,-13.32279968,85,Africa,SN,SN-SL,Matam,yes,GOSM,MAX,,394
POINT (44.94110107 10.38920021),HCMI,medium_airport,Berbera Airport,10.38920021,44.94110107,30,Africa,SO,SO-WO,Berbera,yes,HCMI,BBO,,395
POINT (45.30469894 2.01444006),HCMM,medium_airport,Aden Adde International Airport,2.01444006,45.30469894,29,Africa,SO,SO-BN,Mogadishu,yes,HCMM,MGQ,,396
POINT (44.08879852 9.518170357),HCMH,medium_airport,Egal International Airport,9.518170357,44.08879852,4423,Africa,SO,SO-WO,Hargeisa,yes,HCMH,HGA,screening,397
POINT (44.986599 2.00528),SO-0001,medium_airport,K50 International Airport,2.00528,44.986599,100,Africa,SO,SO-SH,Mogadishu,yes,,,,398
POINT (31.60110092 4.872010231),HSSJ,large_airport,Juba International Airport,4.872010231,31.60110092,1513,Africa,SS,SS-17,Juba,yes,HSSJ,JUB,screening,399
POINT (31.6522007 9.558970451),HSSM,medium_airport,Malakal Airport,9.558970451,31.6522007,1291,Africa,SS,SS-23,Malakal,yes,HSSM,MAK,,400
POINT (27.97500038 7.725830078),HSWW,medium_airport,Wau Airport,7.725830078,27.97500038,1529,Africa,SS,SS-14,Wau,yes,HSWW,WUU,,401
POINT (7.411739826 1.662940025),FPPR,medium_airport,Principe Airport,1.662940025,7.411739826,591,Africa,ST,ST-P,,yes,FPPR,PCP,,402
POINT (6.712150097 0.37817499),FPST,medium_airport,São Tomé International Airport,0.37817499,6.712150097,33,Africa,ST,ST-S,São Tomé,yes,FPST,TMS,,403
POINT (31.30750084 -26.52899933),FDMS,medium_airport,Matsapha Airport,-26.52899933,31.30750084,2075,Africa,SZ,SZ-MA,Manzini,yes,FDMS,MTS,,404
POINT (31.716944 -26.358611),FDSK,medium_airport,King Mswati III International Airport,-26.358611,31.716944,1092,Africa,SZ,SZ-LU,Manzini,yes,FDSK,SHO,,405
POINT (20.84429932 13.84700012),FTTC,medium_airport,Abeche Airport,13.84700012,20.84429932,1788,Africa,TD,TD-OD,,yes,FTTC,AEH,,406
POINT (16.07139969 8.624409676),FTTD,medium_airport,Moundou Airport,8.624409676,16.07139969,1407,Africa,TD,TD-LO,,yes,FTTD,MQQ,,407
POINT (15.0340004 12.13370037),FTTJ,medium_airport,N'Djamena International Airport,12.13370037,15.0340004,968,Africa,TD,TD-CB,N'Djamena,yes,FTTJ,NDJ,,408
POINT (1.254510045 6.165609837),DXXX,medium_airport,Lomé-Tokoin Airport,6.165609837,1.254510045,72,Africa,TG,TG-M,Lomé,yes,DXXX,LFW,,409
POINT (10.75469971 35.7580986),DTMB,medium_airport,Monastir Habib Bourguiba International Airport,35.7580986,10.75469971,9,Africa,TN,TN-52,Monastir,yes,DTMB,MIR,,410
POINT (10.22719955 36.85100174),DTTA,large_airport,Tunis Carthage International Airport,36.85100174,10.22719955,22,Africa,TN,TN-11,Tunis,yes,DTTA,TUN,,411
POINT (8.822500229 34.42200089),DTTF,medium_airport,Gafsa Ksar International Airport,34.42200089,8.822500229,1060,Africa,TN,TN-71,Gafsa,yes,DTTF,GAF,,412
POINT (10.7755003 33.875),DTTJ,medium_airport,Djerba Zarzis International Airport,33.875,10.7755003,19,Africa,TN,TN-82,Djerba,yes,DTTJ,DJE,,413
POINT (10.69099998 34.7179985),DTTX,medium_airport,Sfax Thyna International Airport,34.7179985,10.69099998,85,Africa,TN,TN-61,Sfax,yes,DTTX,SFA,,414
POINT (8.110560417 33.93970108),DTTZ,medium_airport,Tozeur Nefta International Airport,33.93970108,8.110560417,287,Africa,TN,TN-72,Tozeur,yes,DTTZ,TOE,,415
POINT (10.10330009 33.87689972),DTTG,medium_airport,Gabès Matmata International Airport,33.87689972,10.10330009,26,Africa,TN,TN-81,Gabès,yes,DTTG,GAE,,416
POINT (10.438611 36.075833),TN-0002,large_airport,Enfidha - Hammamet International Airport,36.075833,10.438611,21,Africa,TN,TN-51,Enfidha,yes,DTNH,NBE,,417
POINT (8.876939774 36.97999954),DTKA,medium_airport,Tabarka 7 Novembre Airport,36.97999954,8.876939774,230,Africa,TN,TN-32,Tabarka,yes,DTKA,TBJ,,418
POINT (36.63330078 -3.367789984),HTAR,medium_airport,Arusha Airport,-3.367789984,36.63330078,4550,Africa,TZ,TZ-01,Arusha,yes,HTAR,ARK,,419
POINT (39.20259857 -6.878109932),HTDA,medium_airport,Julius Nyerere International Airport,-6.878109932,39.20259857,182,Africa,TZ,TZ-02,Dar es Salaam,yes,HTDA,DAR,,420
POINT (37.07450104 -3.429409981),HTKJ,medium_airport,Kilimanjaro International Airport,-3.429409981,37.07450104,2932,Africa,TZ,TZ-26,Arusha,yes,HTKJ,JRO,,421
POINT (40.18180084 -10.33909988),HTMT,medium_airport,Mtwara Airport,-10.33909988,40.18180084,371,Africa,TZ,TZ-17,Mtwara,yes,HTMT,MYW,,422
POINT (32.93270111 -2.444489956),HTMW,medium_airport,Mwanza Airport,-2.444489956,32.93270111,3763,Africa,TZ,TZ-18,Mwanza,yes,HTMW,MWZ,,423
POINT (39.07120132 -5.09236002),HTTG,medium_airport,Tanga Airport,-5.09236002,39.07120132,129,Africa,TZ,TZ-25,Tanga,yes,HTTG,TGT,,424
POINT (39.22489929 -6.222020149),HTZA,medium_airport,Abeid Amani Karume International Airport,-6.222020149,39.22489929,54,Africa,TZ,TZ-07,Zanzibar,yes,HTZA,ZNZ,,425
POINT (32.44350052 0.042385999),HUEN,medium_airport,Entebbe International Airport,0.042385999,32.44350052,3782,Africa,UG,UG-102,Kampala,yes,HUEN,EBB,screening,426
POINT (32.27180099 2.805560112),HUGU,medium_airport,Gulu Airport,2.805560112,32.27180099,3510,Africa,UG,UG-304,Gulu,yes,HUGU,ULU,,427
POINT (33.62279892 1.727689981),HUSO,medium_airport,Soroti Airport,1.727689981,33.62279892,3697,Africa,UG,UG-211,Soroti,yes,HUSO,SRT,,428
POINT (105.154454 37.573125),ZLZW,medium_airport,Zhongwei Shapotou Airport,37.573125,105.154454,8202,Asia,CN,CN-64,Zhongwei,yes,ZLZW,ZHY,Restrictions,429
POINT (38.79930115 8.977890015),HAAB,large_airport,Addis Ababa Bole International Airport,8.977890015,38.79930115,7630,Africa,ET,ET-AA,Addis Ababa,yes,HAAB,ADD,screening,430
POINT (93.896698 24.76000023),VEIM,medium_airport,Imphal Airport,24.76000023,93.896698,2540,Asia,IN,IN-MN,Imphal,yes,VEIM,IMF,Restrictions,431
POINT (38.77280045 14.14680004),HAAX,medium_airport,Axum Airport,14.14680004,38.77280045,6959,Africa,ET,ET-TI,,yes,HAAX,AXU,,432
POINT (37.32160187 11.60809994),HABD,medium_airport,Bahir Dar Airport,11.60809994,37.32160187,5978,Africa,ET,ET-AM,Bahir Dar,yes,HABD,BJR,,433
POINT (136.9620056 37.29309845),RJNW,medium_airport,Noto Airport,37.29309845,136.9620056,718,Asia,JP,JP-17,Wajima,yes,RJNW,NTQ,,434
POINT (41.85419846 9.624699593),HADR,medium_airport,Aba Tenna Dejazmach Yilma International Airport,9.624699593,41.85419846,3827,Africa,ET,ET-DD,Dire Dawa,yes,HADR,DIR,,435
POINT (34.56309891 8.128760338),HAGM,medium_airport,Gambella Airport,8.128760338,34.56309891,1614,Africa,ET,ET-GA,Gambela,yes,HAGM,GMB,,436
POINT (37.43399811 12.51990032),HAGN,medium_airport,Gonder Airport,12.51990032,37.43399811,6449,Africa,ET,ET-AM,Gondar,yes,HAGN,GDQ,,437
POINT (43.57860184 5.935130119),HAGO,medium_airport,Gode Airport,5.935130119,43.57860184,834,Africa,ET,ET-SO,Gode,yes,HAGO,GDE,,438
POINT (36.8166008 7.666090012),HAJM,medium_airport,Jimma Airport,7.666090012,36.8166008,5500,Africa,ET,ET-OR,Jimma,yes,HAJM,JIM,,439
POINT (34.5862999 10.01850033),HASO,medium_airport,Asosa Airport,10.01850033,34.5862999,5100,Africa,ET,ET-BE,Asosa,yes,HASO,ASO,,440
POINT (37.59049988 6.039390087),HAAM,medium_airport,Arba Minch Airport,6.039390087,37.59049988,3901,Africa,ET,ET-SN,,yes,HAAM,AMH,,441
POINT (42.9121 9.3325),HAJJ,medium_airport,Wilwal International Airport,9.3325,42.9121,5954,Africa,ET,ET-SO,Jijiga,yes,HAJJ,JIJ,,442
POINT (12.44130039 -1.184610009),FOGK,medium_airport,Koulamoutou Mabimbi Airport,-1.184610009,12.44130039,1070,Africa,GA,GA-7,Koulamoutou,yes,FOGK,KOU,,443
POINT (11.05669975 -1.84513998),FOGM,medium_airport,Mouilla Ville Airport,-1.84513998,11.05669975,295,Africa,GA,GA-4,Mouila,yes,FOGM,MJL,,444
POINT (11.58139992 1.543110013),FOGO,medium_airport,Oyem Airport,1.543110013,11.58139992,2158,Africa,GA,GA-9,Oyem,yes,FOGO,OYE,,445
POINT (8.754380226 -0.711739004),FOOG,medium_airport,Port Gentil Airport,-0.711739004,8.754380226,13,Africa,GA,GA-8,Port Gentil,yes,FOOG,POG,,446
POINT (12.89089966 0.579210997),FOOK,medium_airport,Makokou Airport,0.579210997,12.89089966,1726,Africa,GA,GA-6,Makokou,yes,FOOK,MKU,,447
POINT (9.412280083 0.458600014),FOOL,medium_airport,Libreville Leon M'ba International Airport,0.458600014,9.412280083,39,Africa,GA,GA-1,Libreville,yes,FOOL,LBV,,448
POINT (13.43799973 -1.656159997),FOON,medium_airport,M'Vengue El Hadj Omar Bongo Ondimba International Airport,-1.656159997,13.43799973,1450,Africa,GA,GA-2,Franceville,yes,FOON,MVB,,449
POINT (-0.166786 5.6051898),DGAA,large_airport,Kotoka International Airport,5.6051898,-0.166786,205,Africa,GH,GH-AA,Accra,yes,DGAA,ACC,screening,450
POINT (-0.863214016 9.557189941),DGLE,medium_airport,Tamale Airport,9.557189941,-0.863214016,553,Africa,GH,GH-NP,Tamale,yes,DGLE,TML,,451
POINT (-1.590819955 6.714560032),DGSI,medium_airport,Kumasi Airport,6.714560032,-1.590819955,942,Africa,GH,GH-AH,Kumasi,yes,DGSI,KMS,,452
POINT (-2.328759909 7.361830235),DGSN,medium_airport,Sunyani Airport,7.361830235,-2.328759909,1014,Africa,GH,GH-BA,Sunyani,yes,DGSN,NYI,,453
POINT (-1.774760008 4.89605999),DGTK,medium_airport,Takoradi Airport,4.89605999,-1.774760008,21,Africa,GH,GH-WP,Sekondi-Takoradi,yes,DGTK,TKD,,454
POINT (-16.6522007 13.3380003),GBYD,medium_airport,Banjul International Airport,13.3380003,-16.6522007,95,Africa,GM,GM-W,Banjul,yes,GBYD,BJL,,455
POINT (-13.612 9.57689),GUCY,medium_airport,Conakry International Airport,9.57689,-13.612,72,Africa,GN,GN-C,Conakry,yes,GUCY,CKY,,456
POINT (9.805680275 1.905470014),FGBT,medium_airport,Bata Airport,1.905470014,9.805680275,13,Africa,GQ,GQ-LI,,yes,FGBT,BSG,,457
POINT (8.708720207 3.755270004),FGSL,medium_airport,Malabo Airport,3.755270004,8.708720207,76,Africa,GQ,GQ-BN,Malabo,yes,FGSL,SSG,,458
POINT (-15.65369987 11.89480019),GGOV,medium_airport,Osvaldo Vieira International Airport,11.89480019,-15.65369987,129,Africa,GW,GW-BS,Bissau,yes,GGOV,OXB,,459
POINT (35.23889923 0.404457986),HKEL,medium_airport,Eldoret International Airport,0.404457986,35.23889923,6941,Africa,KE,KE-700,Eldoret,yes,HKEL,EDL,,460
POINT (36.92779922 -1.319239974),HKJK,large_airport,Jomo Kenyatta International Airport,-1.319239974,36.92779922,5330,Africa,KE,KE-110,Nairobi,yes,HKJK,NBO,,461
POINT (34.72890091 -0.086139001),HKKI,medium_airport,Kisumu Airport,-0.086139001,34.72890091,3734,Africa,KE,KE-600,Kisumu,yes,HKKI,KIS,,462
POINT (34.34820175 4.204120159),HKLK,medium_airport,Lokichoggio Airport,4.204120159,34.34820175,2074,Africa,KE,KE-700,Lokichoggio,yes,HKLK,LKG,,463
POINT (39.59420013 -4.034830093),HKMO,large_airport,Mombasa Moi International Airport,-4.034830093,39.59420013,200,Africa,KE,KE-300,Mombasa,yes,HKMO,MBA,,464
POINT (36.81480026 -1.321720004),HKNW,medium_airport,Nairobi Wilson Airport,-1.321720004,36.81480026,5536,Africa,KE,KE-110,Nairobi,yes,HKNW,WIL,,465
POINT (40.09159851 1.733240008),HKWJ,medium_airport,Wajir Airport,1.733240008,40.09159851,770,Africa,KE,KE-500,Wajir,yes,HKWJ,WJR,,466
POINT (40.9131012 -2.252419949),HKLU,medium_airport,Manda Airstrip,-2.252419949,40.9131012,20,Africa,KE,KE-300,Lamu,yes,HKLU,LAU,,467
POINT (40.10169983 -3.229310036),HKML,medium_airport,Malindi Airport,-3.229310036,40.10169983,80,Africa,KE,KE-300,Malindi,yes,HKML,MYD,,468
POINT (37.25310135 -2.645050049),HKAM,medium_airport,Amboseli Airport,-2.645050049,37.25310135,3755,Africa,KE,KE-700,Amboseli National Park,yes,HKAM,ASV,,469
POINT (35.008057 -1.406111),HKMS,medium_airport,Mara Serena Lodge Airstrip,-1.406111,35.008057,5200,Africa,KE,KE-700,Masai Mara,yes,HKMS,MRE,,470
POINT (37.041008 -0.062398899),HKNY,medium_airport,Nanyuki Airport,-0.062398899,37.041008,6250,Africa,KE,KE-200,Nanyuki,yes,HKNY,NYK,,471
POINT (41.29750061 -1.960559964),KWY,medium_airport,Kiwayu Airport,-1.960559964,41.29750061,21,Africa,KE,KE-300,Kiwayu,yes,,KWY,,472
POINT (43.2719 -11.5337),FMCH,medium_airport,Prince Said Ibrahim International Airport,-11.5337,43.2719,93,Africa,KM,KM-G,Moroni,yes,FMCH,HAH,,473
POINT (43.76639938 -12.29810047),FMCI,medium_airport,Mohéli Bandar Es Eslam Airport,-12.29810047,43.76639938,46,Africa,KM,KM-M,,yes,FMCI,NWA,,474
POINT (44.43030167 -12.13169956),FMCV,medium_airport,Ouani Airport,-12.13169956,44.43030167,62,Africa,KM,KM-A,Ouani,yes,FMCV,AJN,,475
POINT (-10.75870037 6.289060116),GLMR,medium_airport,Spriggs Payne Airport,6.289060116,-10.75870037,25,Africa,LR,LR-MO,Monrovia,yes,GLMR,MLW,,476
POINT (-10.36229992 6.233789921),GLRB,medium_airport,Roberts International Airport,6.233789921,-10.36229992,31,Africa,LR,LR-MG,Monrovia,yes,GLRB,ROB,,477
POINT (27.55249977 -29.46229935),FXMM,medium_airport,Moshoeshoe I International Airport,-29.46229935,27.55249977,5348,Africa,LS,LS-A,Maseru,yes,FXMM,MSU,,478
POINT (16.59499931 31.06349945),HLGD,medium_airport,Gardabya Airport,31.06349945,16.59499931,267,Africa,LY,LY-SR,Sirt,yes,HLGD,SRX,,479
POINT (10.14260006 25.14559937),HLGT,medium_airport,Ghat Airport,25.14559937,10.14260006,2296,Africa,LY,LY-GT,Ghat,yes,HLGT,GHT,,480
POINT (23.31399918 24.17869949),HLKF,medium_airport,Kufra Airport,24.17869949,23.31399918,1367,Africa,LY,LY-KF,Kufra,yes,HLKF,AKF,,481
POINT (20.26950073 32.09680176),HLLB,medium_airport,Benina International Airport,32.09680176,20.26950073,433,Africa,LY,LY-BA,Benghazi,yes,HLLB,BEN,,482
POINT (13.27600002 32.89410019),HLLM,medium_airport,Mitiga Airport,32.89410019,13.27600002,36,Africa,LY,LY-TB,Tripoli,yes,HLLM,MJI,,483
POINT (21.96430016 32.7887001),HLLQ,medium_airport,La Abraq Airport,32.7887001,21.96430016,2157,Africa,LY,LY-JA,Al Bayda',yes,HLLQ,LAQ,,484
POINT (14.47249985 26.98699951),HLLS,medium_airport,Sabha Airport,26.98699951,14.47249985,1427,Africa,LY,LY-SB,Sabha,yes,HLLS,SEB,,485
POINT (13.1590004 32.66350174),HLLT,large_airport,Tripoli International Airport,32.66350174,13.1590004,263,Africa,LY,LY-TB,Tripoli,yes,HLLT,TIP,,486
POINT (9.715310097 30.15169907),HLTD,medium_airport,Ghadames East Airport,30.15169907,9.715310097,1122,Africa,LY,LY-NL,Ghadames,yes,HLTD,LTD,,487
POINT (-9.413069725 30.32500076),GMAD,medium_airport,Al Massira Airport,30.32500076,-9.413069725,250,Africa,MA,MA-AGD,Agadir,yes,GMAD,AGA,,488
POINT (-11.16129971 28.44820023),GMAT,medium_airport,Tan Tan Airport,28.44820023,-11.16129971,653,Africa,MA,MA-TNT,Tan Tan,yes,GMAT,TTA,,489
POINT (-4.97796011 33.9272995),GMFF,medium_airport,Saïss Airport,33.9272995,-4.97796011,1900,Africa,MA,MA-FES,Fes,yes,GMFF,FEZ,,490
POINT (-4.398330212 31.94750023),GMFK,medium_airport,Moulay Ali Cherif Airport,31.94750023,-4.398330212,3428,Africa,MA,MA-ERR,Errachidia,yes,GMFK,ERH,,491
POINT (-1.923990011 34.78720093),GMFO,medium_airport,Angads Airport,34.78720093,-1.923990011,1535,Africa,MA,MA-OUJ,Oujda,yes,GMFO,OUD,,492
POINT (-6.751520157 34.05149841),GMME,medium_airport,Rabat-Salé Airport,34.05149841,-6.751520157,276,Africa,MA,MA-RBA,Rabat,yes,GMME,RBA,,493
POINT (-7.589970112 33.36750031),GMMN,large_airport,Mohammed V International Airport,33.36750031,-7.589970112,656,Africa,MA,MA-CAS,Casablanca,yes,GMMN,CMN,suspended,494
POINT (-3.028209925 34.98880005),GMMW,medium_airport,Nador International Airport,34.98880005,-3.028209925,574,Africa,MA,MA-NAD,Nador,yes,GMMW,NDR,suspended,495
POINT (-8.036299706 31.60689926),GMMX,medium_airport,Menara Airport,31.60689926,-8.036299706,1545,Africa,MA,MA-MAR,Marrakech,yes,GMMX,RAK,,496
POINT (-6.909430027 30.93910027),GMMZ,medium_airport,Ouarzazate Airport,30.93910027,-6.909430027,3782,Africa,MA,MA-OUA,Ouarzazate,yes,GMMZ,OZZ,,497
POINT (-3.839519978 35.17710114),GMTA,medium_airport,Cherif Al Idrissi Airport,35.17710114,-3.839519978,95,Africa,MA,MA-HOC,Al Hoceima,yes,GMTA,AHU,,498
POINT (-5.916890144 35.72689819),GMTT,medium_airport,Ibn Batouta Airport,35.72689819,-5.916890144,62,Africa,MA,MA-TNG,Tangier,yes,GMTT,TNG,,499
POINT (46.95610046 -25.03809929),FMSD,medium_airport,Tôlanaro Airport,-25.03809929,46.95610046,29,Africa,MG,MG-U,Tôlanaro,yes,FMSD,FTU,,500
POINT (47.11169815 -21.4416008),FMSF,medium_airport,Fianarantsoa Airport,-21.4416008,47.11169815,3658,Africa,MG,MG-F,,yes,FMSF,WFI,,501
POINT (48.02170181 -22.11969948),FMSK,medium_airport,Manakara Airport,-22.11969948,48.02170181,33,Africa,MG,MG-F,,yes,FMSK,WVK,,502
POINT (48.35829926 -21.20179939),FMSM,medium_airport,Mananjary Airport,-21.20179939,48.35829926,20,Africa,MG,MG-F,,yes,FMSM,MNJ,,503
POINT (43.37549973 -21.75390053),FMSR,medium_airport,Morombe Airport,-21.75390053,43.37549973,16,Africa,MG,MG-U,,yes,FMSR,MXM,,504
POINT (43.72850037 -23.38339996),FMST,medium_airport,Toliara Airport,-23.38339996,43.72850037,29,Africa,MG,MG-U,,yes,FMST,TLE,,505
POINT (47.76380157 -14.62969971),FMNL,medium_airport,Analalava Airport,-14.62969971,47.76380157,345,Africa,MG,MG-M,,yes,FMNL,HVA,,506
POINT (44.48248386 -16.7445303),FMNQ,medium_airport,Besalampy Airport,-16.7445303,44.48248386,125,Africa,MG,MG-M,,yes,FMNQ,BPY,,507
POINT (47.47880173 -18.7968998),FMMI,medium_airport,Ivato Airport,-18.7968998,47.47880173,4198,Africa,MG,MG-T,Antananarivo,yes,FMMI,TNR,Restrictions,508
POINT (45.45080185 -19.56279945),FMMN,medium_airport,Miandrivazo Airport,-19.56279945,45.45080185,203,Africa,MG,MG-U,,yes,FMMN,ZVA,,509
POINT (49.81579971 -17.09390068),FMMS,medium_airport,Sainte Marie Airport,-17.09390068,49.81579971,7,Africa,MG,MG-A,,yes,FMMS,SMS,,510
POINT (49.39250183 -18.10950089),FMMT,medium_airport,Toamasina Airport,-18.10950089,49.39250183,22,Africa,MG,MG-A,,yes,FMMT,TMM,,511
POINT (44.31760025 -20.28470039),FMMV,medium_airport,Morondava Airport,-20.28470039,44.31760025,30,Africa,MG,MG-U,,yes,FMMV,MOQ,,512
POINT (49.29169846 -12.34939957),FMNA,medium_airport,Arrachart Airport,-12.34939957,49.29169846,374,Africa,MG,MG-D,,yes,FMNA,DIE,,513
POINT (49.7737999 -16.16390038),FMNC,medium_airport,Mananara Nord Airport,-16.16390038,49.7737999,9,Africa,MG,MG-A,Mananara Nord,yes,FMNC,WMR,,514
POINT (50.32020187 -14.99940014),FMNH,medium_airport,Antsirabato Airport,-14.99940014,50.32020187,20,Africa,MG,MG-D,,yes,FMNH,ANM,,515
POINT (46.35123253 -15.66684174),FMNM,medium_airport,Amborovy Airport,-15.66684174,46.35123253,87,Africa,MG,MG-M,,yes,FMNM,MJN,,516
POINT (48.31480026 -13.31210041),FMNN,medium_airport,Fascene Airport,-13.31210041,48.31480026,36,Africa,MG,MG-D,Nosy Be,yes,FMNN,NOS,,517
POINT (49.68830109 -15.43669987),FMNR,medium_airport,Maroantsetra Airport,-15.43669987,49.68830109,13,Africa,MG,MG-A,,yes,FMNR,WMN,,518
POINT (50.17470169 -14.27859974),FMNS,medium_airport,Sambava Airport,-14.27859974,50.17470169,20,Africa,MG,MG-D,,yes,FMNS,SVB,,519
POINT (50.00279999 -13.37580013),FMNV,medium_airport,Vohimarina Airport,-13.37580013,50.00279999,19,Africa,MG,MG-D,,yes,FMNV,VOH,,520
POINT (47.9939003 -14.8987999),FMNW,medium_airport,Ambalabe Airport,-14.8987999,47.9939003,92,Africa,MG,MG-M,Antsohihy,yes,FMNW,WAI,,521
POINT (-7.949940205 12.53349972),GABS,medium_airport,Senou Airport,12.53349972,-7.949940205,1247,Africa,ML,ML-2,Senou,yes,GABS,BKO,,522
POINT (-0.005456 16.24839973),GAGO,medium_airport,Gao Airport,16.24839973,-0.005456,870,Africa,ML,ML-7,,yes,GAGO,GAQ,,523
POINT (-11.40439987 14.48120022),GAKY,medium_airport,Kayes Dag Dag Airport,14.48120022,-11.40439987,164,Africa,ML,ML-1,,yes,GAKY,KYS,,524
POINT (-4.079559803 14.51280022),GAMB,medium_airport,Mopti Airport,14.51280022,-4.079559803,906,Africa,ML,ML-5,,yes,GAMB,MZI,,525
POINT (-3.007580042 16.73049927),GATB,medium_airport,Timbuktu Airport,16.73049927,-3.007580042,863,Africa,ML,ML-7,Timbuktu,yes,GATB,TOM,,526
POINT (-15.9697222 18.31),GQNO,large_airport,Nouakchott–Oumtounsy International Airport,18.31,-15.9697222,9,Africa,MR,MR-NKC,Nouakchott,yes,GQNO,NKC,,527
POINT (-17.03000069 20.93309975),GQPP,medium_airport,Nouadhibou International Airport,20.93309975,-17.03000069,24,Africa,MR,MR-08,Nouadhibou,yes,GQPP,NDB,,528
POINT (57.68360138 -20.43020058),FIMP,medium_airport,Sir Seewoosagur Ramgoolam International Airport,-20.43020058,57.68360138,186,Africa,MU,MU-GP,Port Louis,yes,FIMP,MRU,Restrictions,529
POINT (63.36100006 -19.75769997),FIMR,medium_airport,Sir Charles Gaetan Duval Airport,-19.75769997,63.36100006,95,Africa,MU,MU-RO,Port Mathurin,yes,FIMR,RRG,,530
POINT (34.97399902 -15.67910004),FWCL,medium_airport,Chileka International Airport,-15.67910004,34.97399902,2555,Africa,MW,MW-BL,Blantyre,yes,FWCL,BLZ,,531
POINT (30.91699982 3.049999952),HUAR,medium_airport,Arua Airport,3.049999952,30.91699982,3951,Africa,UG,UG-303,Arua,yes,HUAR,RUA,,532
POINT (82.49420166 50.03659821),UASK,medium_airport,Ust-Kamennogorsk Airport,50.03659821,82.49420166,939,Asia,KZ,KZ-VOS,Ust Kamenogorsk,yes,UASK,UKK,,533
POINT (45.28110123 -12.8046999),FMCZ,medium_airport,Dzaoudzi Pamandzi International Airport,-12.8046999,45.28110123,23,Africa,YT,YT-U-A,Dzaoudzi,yes,FMCZ,DZA,,534
POINT (77.07389832 52.19499969),UASP,medium_airport,Pavlodar Airport,52.19499969,77.07389832,410,Asia,KZ,KZ-PAV,Pavlodar,yes,UASP,PWQ,,535
POINT (94.17549896 26.73150063),VEJT,medium_airport,Jorhat Airport,26.73150063,94.17549896,311,Asia,IN,IN-AS,Jorhat,yes,VEJT,JRH,Restrictions,536
POINT (100.319 25.649401),ZPDL,medium_airport,Dali Airport,25.649401,100.319,7050,Asia,CN,CN-53,Xiaguan,yes,ZPDL,DLU,Restrictions,537
POINT (80.23439789 50.35129929),UASS,medium_airport,Semipalatinsk Airport,50.35129929,80.23439789,761,Asia,KZ,KZ-VOS,Semey,yes,UASS,DLX,,538
POINT (132.9190063 34.43610001),RJOA,medium_airport,Hiroshima Airport,34.43610001,132.9190063,1088,Asia,JP,JP-34,Hiroshima,yes,RJOA,HIJ,,539
POINT (26.30240059 -29.09269905),FABL,medium_airport,Bram Fischer International Airport,-29.09269905,26.30240059,4458,Africa,ZA,ZA-FS,Bloemfontain,yes,FABL,BFN,,540
POINT (133.8549957 34.75690079),RJOB,medium_airport,Okayama Airport,34.75690079,133.8549957,806,Asia,JP,JP-33,Okayama City,yes,RJOB,OKJ,,541
POINT (92.97869873 24.91290092),VEKU,medium_airport,Silchar Airport,24.91290092,92.97869873,352,Asia,IN,IN-AS,Silchar,yes,VEKU,IXS,Restrictions,542
POINT (51.09199905 43.86009979),UATE,medium_airport,Aktau Airport,43.86009979,51.09199905,73,Asia,KZ,KZ-MAN,Aktau,yes,UATE,SCO,,543
POINT (18.60169983 -33.96480179),FACT,large_airport,Cape Town International Airport,-33.96480179,18.60169983,151,Africa,ZA,ZA-WC,Cape Town,yes,FACT,CPT,screening,544
POINT (99.6772 27.7936),ZPDQ,medium_airport,Diqing Airport,27.7936,99.6772,10761,Asia,CN,CN-53,Shangri-La,yes,ZPDQ,DIG,Restrictions,545
POINT (92.61969757 23.84059906),VELP,medium_airport,Lengpui Airport,23.84059906,92.61969757,1398,Asia,IN,IN-MZ,Aizawl,yes,VELP,AJL,Restrictions,546
POINT (51.82139969 47.12189865),UATG,medium_airport,Atyrau Airport,47.12189865,51.82139969,-72,Asia,KZ,KZ-ATY,Atyrau,yes,UATG,GUW,,547
POINT (132.8899994 35.41360092),RJOC,medium_airport,Izumo Airport,35.41360092,132.8899994,15,Asia,JP,JP-32,Izumo,yes,RJOC,IZO,,548
POINT (100.2460022 26.68000031),ZPLJ,medium_airport,Lijiang Airport,26.68000031,100.2460022,*****,Asia,CN,CN-53,Lijiang,yes,ZPLJ,LJG,Restrictions,549
POINT (27.82589912 -33.03559875),FAEL,medium_airport,Ben Schoeman Airport,-33.03559875,27.82589912,435,Africa,ZA,ZA-EC,East London,yes,FAEL,ELS,,550
POINT (94.09760284 27.2954998),VELR,medium_airport,North Lakhimpur Airport,27.2954998,94.09760284,330,Asia,IN,IN-AS,Lilabari,yes,VELR,IXI,Restrictions,551
POINT (57.20669937 50.24580002),UATT,medium_airport,Aktobe Airport,50.24580002,57.20669937,738,Asia,KZ,KZ-AKT,Aktyuinsk,yes,UATT,AKX,,552
POINT (133.2359924 35.49219894),RJOH,medium_airport,Miho Yonago Airport,35.49219894,133.2359924,20,Asia,JP,JP-32,Yonago,yes,RJOH,YGJ,,553
POINT (117.050003 30.582199),ZSAQ,medium_airport,Anqing Tianzhushan Airport,30.582199,117.050003,*****,Asia,CN,CN-34,Anqing,yes,ZSAQ,AQG,Restrictions,554
POINT (22.37890053 -34.00559998),FAGG,large_airport,George Airport,-34.00559998,22.37890053,648,Africa,ZA,ZA-WC,George,yes,FAGG,GRJ,,555
POINT (95.01689911 27.48390007),VEMN,medium_airport,Dibrugarh Airport,27.48390007,95.01689911,362,Asia,IN,IN-AS,Dibrugarh,yes,VEMN,DIB,Restrictions,556
POINT (63.5503006 53.20690155),UAUU,medium_airport,Kostanay West Airport,53.20690155,63.5503006,595,Asia,KZ,KZ-KUS,Kostanay,yes,UAUU,KSN,,557
POINT (132.235992 34.143902),RJOI,medium_airport,Iwakuni Marine Corps Air Station,34.143902,132.235992,7,Asia,JP,JP-35,Iwakuni,yes,RJOI,IWK,,558
POINT (115.734364 32.882157),ZSFY,medium_airport,Fuyang Xiguan Airport,32.882157,115.734364,104,Asia,CN,CN-U-A,Fuyang,yes,ZSFY,FUG,Restrictions,559
POINT (28.15119934 -26.24250031),FAGM,medium_airport,Rand Airport,-26.24250031,28.15119934,5483,Africa,ZA,ZA-GT,Johannesburg,yes,FAGM,QRA,,560
POINT (69.59459686 53.32910156),UACK,medium_airport,Kokshetau Airport,53.32910156,69.59459686,900,Asia,KZ,KZ-AKM,Kokshetau,yes,UACK,KOV,,561
POINT (93.77110291 25.88389969),VEMR,medium_airport,Dimapur Airport,25.88389969,93.77110291,487,Asia,IN,IN-NL,Dimapur,yes,VEMR,DMU,Restrictions,562
POINT (133.669006 33.546101),RJOK,medium_airport,K?chi Ry?ma Airport,33.546101,133.669006,42,Asia,JP,JP-39,Nankoku,yes,RJOK,KCZ,,563
POINT (117.1760025 29.33860016),ZSJD,medium_airport,Jingdezhen Airport,29.33860016,117.1760025,112,Asia,CN,CN-36,Jingdezhen,yes,ZSJD,JDZ,Restrictions,564
POINT (28.246 -26.1392),FAJS,large_airport,OR Tambo International Airport,-26.1392,28.246,5558,Africa,ZA,ZA-GT,Johannesburg,yes,FAOR,JNB,screening,565
POINT (69.18389893 54.77470016),UACP,medium_airport,Petropavlosk South Airport,54.77470016,69.18389893,453,Asia,KZ,KZ-SEV,Petropavlosk,yes,UACP,PPK,,566
POINT (85.08799744 25.59129906),VEPT,medium_airport,Lok Nayak Jayaprakash Airport,25.59129906,85.08799744,170,Asia,IN,IN-BR,Patna,yes,VEPT,PAT,Restrictions,567
POINT (132.6999969 33.82720184),RJOM,medium_airport,Matsuyama Airport,33.82720184,132.6999969,25,Asia,JP,JP-38,Matsuyama,yes,RJOM,MYJ,,568
POINT (118.899002 28.965799),ZSJU,medium_airport,Quzhou Airport,28.965799,118.899002,*****,Asia,CN,CN-33,Quzhou,yes,ZSJU,JUZ,Restrictions,569
POINT (24.76519966 -28.80279922),FAKM,medium_airport,Kimberley Airport,-28.80279922,24.76519966,3950,Africa,ZA,ZA-NC,Kimberley,yes,FAKM,KIM,,570
POINT (102.1610031 19.89730072),VLLB,medium_airport,Luang Phabang International Airport,19.89730072,102.1610031,955,Asia,LA,LA-LP,Luang Phabang,yes,VLLB,LPQ,,571
POINT (105.7809982 15.13210011),VLPS,medium_airport,Pakse International Airport,15.13210011,105.7809982,351,Asia,LA,LA-CH,Pakse,yes,VLPS,PKZ,,572
POINT (102.5630035 17.98830032),VLVT,medium_airport,Wattay International Airport,17.98830032,102.5630035,564,Asia,LA,LA-VT,Vientiane,yes,VLVT,VTE,,573
POINT (35.48839951 33.82089996),OLBA,large_airport,Beirut Rafic Hariri International Airport,33.82089996,35.48839951,87,Asia,LB,LB-JL,Beirut,yes,OLBA,BEY,Restrictions,574
POINT (79.88410187 7.180759907),VCBI,large_airport,Bandaranaike International Colombo Airport,7.180759907,79.88410187,30,Asia,LK,LK-1,Colombo,yes,VCBI,CMB,Restrictions,575
POINT (81.678802 7.70576),VCCB,medium_airport,Batticaloa Airport,7.70576,81.678802,20,Asia,LK,LK-5,Batticaloa,yes,VCCB,BTC,,576
POINT (79.88619995 6.821990013),VCCC,medium_airport,Colombo Ratmalana Airport,6.821990013,79.88619995,22,Asia,LK,LK-1,Colombo,yes,VCCC,RML,,577
POINT (80.07009888 9.792329788),VCCJ,medium_airport,Kankesanturai Airport,9.792329788,80.07009888,33,Asia,LK,LK-4,Jaffna,yes,VCCJ,JAF,,578
POINT (80.32029724 5.99368),VCCK,medium_airport,Koggala Airport,5.99368,80.32029724,10,Asia,LK,LK-3,Galle,yes,VCCK,KCT,,579
POINT (81.18190002 8.538510323),VCCT,medium_airport,China Bay Airport,8.538510323,81.18190002,6,Asia,LK,LK-5,Trincomalee,yes,VCCT,TRR,,580
POINT (81.124128 6.284467),VCRI,large_airport,Mattala Rajapaksa International Airport,6.284467,81.124128,157,Asia,LK,LK-3,,yes,VCRI,HRI,Restrictions,581
POINT (98.20359802 14.10389996),VYDW,medium_airport,Dawei Airport,14.10389996,98.20359802,84,Asia,MM,MM-05,Dawei,yes,VYDW,TVY,,582
POINT (96.200996 19.623501),VYEL,medium_airport,Naypyidaw Airport,19.623501,96.200996,302,Asia,MM,MM-04,Pyinmana,yes,VYNT,NYT,,583
POINT (96.79199982 20.74699974),VYHH,medium_airport,Heho Airport,20.74699974,96.79199982,3858,Asia,MM,MM-17,Heho,yes,VYHH,HEH,,584
POINT (99.63600159 21.3015995),VYKG,medium_airport,Kengtung Airport,21.3015995,99.63600159,2798,Asia,MM,MM-17,Kengtung,yes,VYKG,KET,,585
POINT (93.53479767 19.42639923),VYKP,medium_airport,Kyaukpyu Airport,19.42639923,93.53479767,20,Asia,MM,MM-16,Kyaukpyu,yes,VYKP,KYP,,586
POINT (98.53800201 10.04930019),VYKT,medium_airport,Kawthoung Airport,10.04930019,98.53800201,180,Asia,MM,MM-05,Kawthoung,yes,VYKT,KAW,,587
POINT (97.21479797 19.69149971),VYLK,medium_airport,Loikaw Airport,19.69149971,97.21479797,2940,Asia,MM,MM-12,Loikaw,yes,VYLK,LIW,,588
POINT (97.75219727 22.97789955),VYLS,medium_airport,Lashio Airport,22.97789955,97.75219727,2450,Asia,MM,MM-17,Lashio,yes,VYLS,LSH,,589
